[{"business_status":"OPERATIONAL","formatted_address":"Mäkelänkatu 31, 00550 Helsinki, Finland","geometry":{"location":{"lat":60.19501090000001,"lng":24.9565086},"viewport":{"northeast":{"lat":60.19636312989272,"lng":24.95785522989272},"southwest":{"lat":60.19366347010728,"lng":24.95515557010728}}},"icon":"https://maps.gstatic.com/mapfiles/place_api/icons/v1/png_71/restaurant-71.png","icon_background_color":"#FF9E67","icon_mask_base_uri":"https://maps.gstatic.com/mapfiles/place_api/icons/v2/restaurant_pinlet","name":"King Kebab Vallila","opening_hours":{"open_now":true},"photos":[{"height":3456,"html_attributions":["<a href=\"https://maps.google.com/maps/contrib/108021327429789987860\">A Google User</a>"],"photo_reference":"Aaw_FcJOIfzxe0ItD01PNZOoahzXQ-FzatgSi5NMHpCBg81kJ_f0rfyt5i_JLp0VuUHK8pmz-c3H4HfMCxDsWiA1JtTM_-Fl1jUPAfn9EGybPuikz8ySHD5JRl0YZ7pMWD82LvPcTpYWk2JKy5uhIwBlGWplKzuH9ZvphDB55e1u-8sWa8xF","width":4608}],"place_id":"ChIJ_UVP1oIJkkYRAxgreDr0vz8","plus_code":{"compound_code":"5XV4+XJ Helsinki","global_code":"9GG65XV4+XJ"},"price_level":1,"rating":4.5,"reference":"ChIJ_UVP1oIJkkYRAxgreDr0vz8","types":["restaurant","food","point_of_interest","establishment"],"user_ratings_total":1999},{"business_status":"OPERATIONAL","formatted_address":"Vaasankatu 19a, 00101 Helsinki, Finland","geometry":{"location":{"lat":60.1884627,"lng":24.9562328},"viewport":{"northeast":{"lat":60.18980417989272,"lng":24.95758342989272},"southwest":{"lat":60.18710452010728,"lng":24.95488377010728}}},"icon":"https://maps.gstatic.com/mapfiles/place_api/icons/v1/png_71/restaurant-71.png","icon_background_color":"#FF9E67","icon_mask_base_uri":"https://maps.gstatic.com/mapfiles/place_api/icons/v2/restaurant_pinlet","name":"King Kebab Kallio","opening_hours":{"open_now":true},"photos":[{"height":2610,"html_attributions":["<a href=\"https://maps.google.com/maps/contrib/110877079477403840766\">A Google User</a>"],"photo_reference":"Aaw_FcL8FtZ0mUxGi-zRr5mhcBtEFeEaO7FEW8OCQbLOGxpqTMUHdbi-ZzUEH1YstmBon3k5_9e_GyxSFmAApJtV0aTiGYKtfeX_OmpWvWsZWn3cZiJetCP68_WvAWh7pCtD7rTZdnx_-caLxT5lD3fFEHm0KoehmKDFyHaDDUo9IPw1-bG7","width":4640}],"place_id":"ChIJW_oOW38JkkYRG-pbpk2wWBg","plus_code":{"compound_code":"5XQ4+CF Helsinki","global_code":"9GG65XQ4+CF"},"rating":4.4,"reference":"ChIJW_oOW38JkkYRG-pbpk2wWBg","types":["restaurant","food","point_of_interest","establishment"],"user_ratings_total":1204},{"business_status":"OPERATIONAL","formatted_address":"Sahaajankatu 43, 00880 Helsinki, Finland","geometry":{"location":{"lat":60.20591779999999,"lng":25.0528249},"viewport":{"northeast":{"lat":60.20735117989271,"lng":25.05396752989272},"southwest":{"lat":60.20465152010727,"lng":25.05126787010728}}},"icon":"https://maps.gstatic.com/mapfiles/place_api/icons/v1/png_71/restaurant-71.png","icon_background_color":"#FF9E67","icon_mask_base_uri":"https://maps.gstatic.com/mapfiles/place_api/icons/v2/restaurant_pinlet","name":"King Kebab Herttoniemi","opening_hours":{"open_now":true},"photos":[{"height":1816,"html_attributions":["<a href=\"https://maps.google.com/maps/contrib/117422882572512063172\">Mika Salomaa</a>"],"photo_reference":"Aaw_FcJNDaDjqMn96X23SqlxEcD_2qAx4W88HP3VXP6KXCI8HQ4sa45n6EqeNmqK9fP7O8s9ubxF9GUfTrF1AUypSGKCaHBsnjghd-4iqKlQC289CADuMIlK51sc91wFaX8qssApdvYjl9WEOJKGE-wk2f3yrrzHP86_vyc2a9S64Pt6eGQ","width":4032}],"place_id":"ChIJlyy7rTMJkkYR9LTQwjKw4ws","plus_code":{"compound_code":"6343+94 Helsinki","global_code":"9GG76343+94"},"rating":4.4,"reference":"ChIJlyy7rTMJkkYR9LTQwjKw4ws","types":["restaurant","food","point_of_interest","establishment"],"user_ratings_total":403},{"business_status":"OPERATIONAL","formatted_address":"Kauppakartanonkatu 3, 00930 Helsinki, Finland","geometry":{"location":{"lat":60.2092433,"lng":25.0866513},"viewport":{"northeast":{"lat":60.21053742989272,"lng":25.08806252989272},"southwest":{"lat":60.20783777010728,"lng":25.08536287010728}}},"icon":"https://maps.gstatic.com/mapfiles/place_api/icons/v1/png_71/restaurant-71.png","icon_background_color":"#FF9E67","icon_mask_base_uri":"https://maps.gstatic.com/mapfiles/place_api/icons/v2/restaurant_pinlet","name":"King kebab Itäkeskus","opening_hours":{"open_now":true},"photos":[{"height":2160,"html_attributions":["<a href=\"https://maps.google.com/maps/contrib/112632764938506215199\">Shasha Ivanoff</a>"],"photo_reference":"Aaw_FcIUCHvqMD3xuEKNlMrRNrwJ0YYBGZlSBzuMqksmhClYKpFpwJtJiQuaG0ZZlK3UNBFrJV7n-ebuIavybPiXGefDws-8O7LBNeQdJ_Nk7pNsvhNuzlsAChfEgjdeYyeGy2HyrtWLmMtMTQxG0rGw6p_MKnVK88afGrPBUp6jRuvqtSAo","width":3840}],"place_id":"ChIJL8aTq-MPkkYRAJYhZBU09Fo","plus_code":{"compound_code":"635P+MM Helsinki","global_code":"9GG7635P+MM"},"rating":4,"reference":"ChIJL8aTq-MPkkYRAJYhZBU09Fo","types":["restaurant","food","point_of_interest","establishment"],"user_ratings_total":23},{"business_status":"OPERATIONAL","formatted_address":"Yliskylän puistokatu 4, 00840 Helsinki, Finland","geometry":{"location":{"lat":60.17985580000001,"lng":25.0515181},"viewport":{"northeast":{"lat":60.18123352989272,"lng":25.05279447989272},"southwest":{"lat":60.17853387010728,"lng":25.05009482010728}}},"icon":"https://maps.gstatic.com/mapfiles/place_api/icons/v1/png_71/restaurant-71.png","icon_background_color":"#FF9E67","icon_mask_base_uri":"https://maps.gstatic.com/mapfiles/place_api/icons/v2/restaurant_pinlet","name":"King Kebab Laajasalo","opening_hours":{"open_now":true},"photos":[{"height":1800,"html_attributions":["<a href=\"https://maps.google.com/maps/contrib/101712621886088140982\">huner fattah</a>"],"photo_reference":"Aaw_FcLmqfBNcpWQrzQ1Glt9Y972sDNeuK7mwuXNTwRquaO0GZMonywhr-1NExa6otNMkiguoClrDnKDJiiHXUdw_TVDrWX3rtNFiihRfJ9gFw3E6viR-3SiftAGkcP1LyTpN9BF88O30cnOmKbmYFrRQXqu6CxvtJdTIBREN2cp7Phk79tK","width":4000}],"place_id":"ChIJ7261AhcPkkYRMvzDG4SJaBU","plus_code":{"compound_code":"53H2+WJ Helsinki","global_code":"9GG753H2+WJ"},"rating":4.7,"reference":"ChIJ7261AhcPkkYRMvzDG4SJaBU","types":["restaurant","food","point_of_interest","establishment"],"user_ratings_total":46},{"business_status":"OPERATIONAL","formatted_address":"Kontulankaari 1, 00940 Helsinki, Finland","geometry":{"location":{"lat":60.2359126,"lng":25.0827561},"viewport":{"northeast":{"lat":60.23724807989271,"lng":25.08406467989272},"southwest":{"lat":60.23454842010727,"lng":25.08136502010728}}},"icon":"https://maps.gstatic.com/mapfiles/place_api/icons/v1/png_71/restaurant-71.png","icon_background_color":"#FF9E67","icon_mask_base_uri":"https://maps.gstatic.com/mapfiles/place_api/icons/v2/restaurant_pinlet","name":"Döner king","opening_hours":{"open_now":true},"photos":[{"height":802,"html_attributions":["<a href=\"https://maps.google.com/maps/contrib/102985436891212895988\">A Google User</a>"],"photo_reference":"Aaw_FcJ-axcpuOG-o-f1-yYIgg-TRdu3CQTehH5RWdY11Ansz5_vngcOklG9QUME1aB5usdOu7J2kiqe-I6dLDjGNzb2bbRw80OXhLMFXCBRJ6Q3oFgbWJuuZFR3rueRpCxPfj9tJajq3gLw_6nawSGWyTXDBdvkDww-zQvj9WVYrozxHu2K","width":1209}],"place_id":"ChIJu94kJbcIkkYRJ9dsguBFDiI","plus_code":{"compound_code":"63PM+94 Helsinki","global_code":"9GG763PM+94"},"rating":3.8,"reference":"ChIJu94kJbcIkkYRJ9dsguBFDiI","types":["restaurant","food","point_of_interest","establishment"],"user_ratings_total":170},{"business_status":"OPERATIONAL","formatted_address":"Valimotie 10b, 01510 Vantaa, Finland","geometry":{"location":{"lat":60.2809508,"lng":24.9718163},"viewport":{"northeast":{"lat":60.28232652989273,"lng":24.97306907989272},"southwest":{"lat":60.27962687010729,"lng":24.97036942010728}}},"icon":"https://maps.gstatic.com/mapfiles/place_api/icons/v1/png_71/restaurant-71.png","icon_background_color":"#FF9E67","icon_mask_base_uri":"https://maps.gstatic.com/mapfiles/place_api/icons/v2/restaurant_pinlet","name":"King Kebab","photos":[{"height":2736,"html_attributions":["<a href=\"https://maps.google.com/maps/contrib/105197019485425406480\">Miika Pussinen</a>"],"photo_reference":"Aaw_FcKHv7G6WPpYSZKy_q-jN-FZeYUQAa7_aTO8sCghGJmjXyoZBa-kLiIyCS8ZNmbTenMclnUnItblBrxpywcQRAWDJIi1lxA8xvRpPbaGgDgK7dDgRgoQmfF1O0r0yOVWTRw82rVeWtBPZ44vgXpu2LMevMmBWtY7MZE9anLmsGrGcjW3","width":3648}],"place_id":"ChIJ9_2O4I8HkkYRtm5Dui9NS5o","plus_code":{"compound_code":"7XJC+CJ Vantaa","global_code":"9GG67XJC+CJ"},"rating":2.5,"reference":"ChIJ9_2O4I8HkkYRtm5Dui9NS5o","types":["restaurant","food","point_of_interest","establishment"],"user_ratings_total":6},{"business_status":"OPERATIONAL","formatted_address":"Tikkuraitti 15, 01300 Vantaa, Finland","geometry":{"location":{"lat":60.2935895,"lng":25.0351338},"viewport":{"northeast":{"lat":60.29493807989272,"lng":25.03659692989272},"southwest":{"lat":60.29223842010727,"lng":25.03389727010728}}},"icon":"https://maps.gstatic.com/mapfiles/place_api/icons/v1/png_71/restaurant-71.png","icon_background_color":"#FF9E67","icon_mask_base_uri":"https://maps.gstatic.com/mapfiles/place_api/icons/v2/restaurant_pinlet","name":"King Kebab Tikkurila","opening_hours":{"open_now":true},"photos":[{"height":3840,"html_attributions":["<a href=\"https://maps.google.com/maps/contrib/116598344068157914482\">lari marjakaarto</a>"],"photo_reference":"Aaw_FcIWFmnC1KJVNUVCErBDyKSJ6RvBwQY4h7pf1-PdO3PrcbFsZj9OuCC1LhZ8rwivsatFEdHD7edxKjZU2uv-lN8b-Gt-pABUdGsIcokjWfWUix29bDaI_pHZShsAy1gGSLE6qHz9dmbG1WUl3JV4bGXP7i79s7TzoPzcDJBlnwFN-juN","width":5120}],"place_id":"ChIJO17x9rUHkkYRCpxXj3ko1VI","plus_code":{"compound_code":"72VP+C3 Vantaa","global_code":"9GG772VP+C3"},"rating":4,"reference":"ChIJO17x9rUHkkYRCpxXj3ko1VI","types":["restaurant","food","point_of_interest","establishment"],"user_ratings_total":131},{"business_status":"OPERATIONAL","formatted_address":"Penttilänaukio 6, 00740 Helsinki, Finland","geometry":{"location":{"lat":60.2812019,"lng":25.0077613},"viewport":{"northeast":{"lat":60.28263802989272,"lng":25.00909967989272},"southwest":{"lat":60.27993837010728,"lng":25.00640002010728}}},"icon":"https://maps.gstatic.com/mapfiles/place_api/icons/v1/png_71/restaurant-71.png","icon_background_color":"#FF9E67","icon_mask_base_uri":"https://maps.gstatic.com/mapfiles/place_api/icons/v2/restaurant_pinlet","name":"KINGS PIZZA SUUTARILA","opening_hours":{"open_now":true},"photos":[{"height":1084,"html_attributions":["<a href=\"https://maps.google.com/maps/contrib/100844779978568124973\">A Google User</a>"],"photo_reference":"Aaw_FcI20ctsE-XAuD6dRNaV2h6G-beplvrLaKi9W-P3QEpIykc9X4KGBRbdEI6VVRBtsKeMdgiNqKhs5t-s3Rt2RF5MoTNAumObGtSrC8T5_tv2NadWJ6KhyGsi3Vasyn4zF6ivDc7j090jEHE6Vf9gCgn4wtp1pZuKRLMkwFOSTU8sBVGE","width":2020}],"place_id":"ChIJFxf7zJsHkkYR4JDkfaMwQHE","plus_code":{"compound_code":"72J5+F4 Helsinki","global_code":"9GG772J5+F4"},"rating":4,"reference":"ChIJFxf7zJsHkkYR4JDkfaMwQHE","types":["meal_takeaway","restaurant","food","point_of_interest","establishment"],"user_ratings_total":76},{"business_status":"OPERATIONAL","formatted_address":"Kirkonkyläntie 6, 00700 Helsinki, Finland","geometry":{"location":{"lat":60.25182400000001,"lng":25.0071798},"viewport":{"northeast":{"lat":60.25321327989272,"lng":25.00861022989272},"southwest":{"lat":60.25051362010728,"lng":25.00591057010728}}},"icon":"https://maps.gstatic.com/mapfiles/place_api/icons/v1/png_71/restaurant-71.png","icon_background_color":"#FF9E67","icon_mask_base_uri":"https://maps.gstatic.com/mapfiles/place_api/icons/v2/restaurant_pinlet","name":"Malmin King Pizza","opening_hours":{"open_now":true},"photos":[{"height":2268,"html_attributions":["<a href=\"https://maps.google.com/maps/contrib/115348145439963247052\">Kimmo Lahti</a>"],"photo_reference":"Aaw_FcKMi-NjuvvzoE8Wz0TCOO70dEXltCQ2SaEceSkC61mUgoJY9v1RUSvUgnIbFaXtAkXplBTw6RBQlVF0OZzPF0NXlOVhONFm3S9w6PQ_pDCg6fs8t_wY9g0NBxRcVgwXdMNhKfWk9vgLdVJsxluzhIc7wBokxCr15VTmt6e_y0519P0v","width":4032}],"place_id":"ChIJDbvc7jwJkkYRpH2zjBTVkiQ","plus_code":{"compound_code":"7224+PV Helsinki","global_code":"9GG77224+PV"},"rating":3.7,"reference":"ChIJDbvc7jwJkkYRpH2zjBTVkiQ","types":["restaurant","food","point_of_interest","establishment"],"user_ratings_total":154},{"business_status":"OPERATIONAL","formatted_address":"Linnanrakentajantie 2, 00880 Helsinki, Finland","geometry":{"location":{"lat":60.19436709999999,"lng":25.032545},"viewport":{"northeast":{"lat":60.19573037989271,"lng":25.03380112989272},"southwest":{"lat":60.19303072010727,"lng":25.03110147010727}}},"icon":"https://maps.gstatic.com/mapfiles/place_api/icons/v1/png_71/restaurant-71.png","icon_background_color":"#FF9E67","icon_mask_base_uri":"https://maps.gstatic.com/mapfiles/place_api/icons/v2/restaurant_pinlet","name":"King Döner","opening_hours":{"open_now":true},"photos":[{"height":3072,"html_attributions":["<a href=\"https://maps.google.com/maps/contrib/107962179707562637273\">A Google User</a>"],"photo_reference":"Aaw_FcIIe3YU33j4pBN3cn7cIUTaPnRQhfp0ZocH4BUFYLdkxZc2xB6VL1K6jJSEJSwkg9s4uarcbXcdIy3p2CWJP2y1GKfnS8AwL6lb2URexgLlE7763LWuJcivvPIZcXXoaQsESsZ6qNAT8Qo4TP8wSEZOKFbUgOV9GVq153u2GJDHVejF","width":4608}],"place_id":"ChIJ32ND77QJkkYRXL5ueNO-mHw","plus_code":{"compound_code":"52VM+P2 Helsinki","global_code":"9GG752VM+P2"},"rating":4.1,"reference":"ChIJ32ND77QJkkYRXL5ueNO-mHw","types":["restaurant","food","point_of_interest","establishment"],"user_ratings_total":59},{"business_status":"OPERATIONAL","formatted_address":"Mannerheimintie 47, 00250 Helsinki, Finland","geometry":{"location":{"lat":60.188838,"lng":24.9181603},"viewport":{"northeast":{"lat":60.19015082989272,"lng":24.91937602989272},"southwest":{"lat":60.18745117010728,"lng":24.91667637010728}}},"icon":"https://maps.gstatic.com/mapfiles/place_api/icons/v1/png_71/restaurant-71.png","icon_background_color":"#FF9E67","icon_mask_base_uri":"https://maps.gstatic.com/mapfiles/place_api/icons/v2/restaurant_pinlet","name":"KotKot Töölö","opening_hours":{"open_now":true},"photos":[{"height":976,"html_attributions":["<a href=\"https://maps.google.com/maps/contrib/104386102685992952648\">Pertti</a>"],"photo_reference":"Aaw_FcL6PQ_W2whdfpZHpU85vVVO4wz9yLyjCPcgF9HFKrdZFuNN7DvCrpqPLEAcHbQiCf_lLLm8p_8FWvVPXH3xsWHBBfBtVEMzoP3p_DhjooD8EeJKN8HCP05MsCgoVuhdGGTvelfnaLPJ86wK-WFeruYCkZ4D8sX0NqT1A9abthAJegEF","width":1551}],"place_id":"ChIJhepWM6sLkkYRiTUZOU0Onns","plus_code":{"compound_code":"5WQ9+G7 Helsinki","global_code":"9GG65WQ9+G7"},"price_level":1,"rating":4.3,"reference":"ChIJhepWM6sLkkYRiTUZOU0Onns","types":["restaurant","food","point_of_interest","establishment"],"user_ratings_total":306},{"business_status":"OPERATIONAL","formatted_address":"Kaarlenkatu 7, 00530 Helsinki, Finland","geometry":{"location":{"lat":60.1853514,"lng":24.951861},"viewport":{"northeast":{"lat":60.18669727989272,"lng":24.95303377989272},"southwest":{"lat":60.18399762010728,"lng":24.95033412010728}}},"icon":"https://maps.gstatic.com/mapfiles/place_api/icons/v1/png_71/restaurant-71.png","icon_background_color":"#FF9E67","icon_mask_base_uri":"https://maps.gstatic.com/mapfiles/place_api/icons/v2/restaurant_pinlet","name":"KotKot Kallio","opening_hours":{"open_now":true},"photos":[{"height":4032,"html_attributions":["<a href=\"https://maps.google.com/maps/contrib/100306732382720095149\">Jorma Mattila</a>"],"photo_reference":"Aaw_FcLQjDku_zYJspF7MtVYIBxvkF5loDDp9baI-Anew5jc5B5OFyGGlAfWd-pPpIIRqlZE9wpHBYvm_4jEwFhGJrk54pACBTJYspd7S9kXPhehN5F0Zo62Xe8Zdg6JHVynKVOmipIcwFLkFC6BkNPDv_-Lv_Lh2oVbcY4KzkY6V1kW9voN","width":3024}],"place_id":"ChIJRWypn7gLkkYRBLre8vaAFBE","plus_code":{"compound_code":"5XP2+4P Helsinki","global_code":"9GG65XP2+4P"},"rating":4.1,"reference":"ChIJRWypn7gLkkYRBLre8vaAFBE","types":["restaurant","food","point_of_interest","establishment"],"user_ratings_total":240},{"business_status":"OPERATIONAL","formatted_address":"Fredrikinkatu 65 2nd floor, 00100 Helsinki, Finland","geometry":{"location":{"lat":60.1695044,"lng":24.9299446},"viewport":{"northeast":{"lat":60.17083082989272,"lng":24.93122057989272},"southwest":{"lat":60.16813117010727,"lng":24.92852092010728}}},"icon":"https://maps.gstatic.com/mapfiles/place_api/icons/v1/png_71/restaurant-71.png","icon_background_color":"#FF9E67","icon_mask_base_uri":"https://maps.gstatic.com/mapfiles/place_api/icons/v2/restaurant_pinlet","name":"KotKot Tennispalatsi","opening_hours":{"open_now":true},"photos":[{"height":3024,"html_attributions":["<a href=\"https://maps.google.com/maps/contrib/109520451160113162418\">Hạo Thái</a>"],"photo_reference":"Aaw_FcJbo46aEW_2U4ZpiTnvzIb0M0UlFhyxHUvcS_a7WuW0g8uYePaheQxWPmanHYDjf0CrztVyeHzXv3Ki0D12lZlXLNVQs9mGOg-ZJV8PXhgOgb3JcWJ4_ExcsuFkYw4hhkW5ZXRcGQr0DWAXIEV6ReEkke36IDg18AJBHEEDqvoy6J_q","width":4032}],"place_id":"ChIJl_KuX_YLkkYRfigtwXX1ueA","plus_code":{"compound_code":"5W9H+RX Helsinki","global_code":"9GG65W9H+RX"},"rating":3,"reference":"ChIJl_KuX_YLkkYRfigtwXX1ueA","types":["restaurant","food","point_of_interest","establishment"],"user_ratings_total":21},{"business_status":"OPERATIONAL","formatted_address":"Ludviginkatu 3-5, 00130 Helsinki, Finland","geometry":{"location":{"lat":60.1658596,"lng":24.9446808},"viewport":{"northeast":{"lat":60.16716622989272,"lng":24.94604252989272},"southwest":{"lat":60.16446657010727,"lng":24.94334287010728}}},"icon":"https://maps.gstatic.com/mapfiles/place_api/icons/v1/png_71/restaurant-71.png","icon_background_color":"#FF9E67","icon_mask_base_uri":"https://maps.gstatic.com/mapfiles/place_api/icons/v2/restaurant_pinlet","name":"Ravintola Ragu","opening_hours":{"open_now":true},"photos":[{"height":4624,"html_attributions":["<a href=\"https://maps.google.com/maps/contrib/112751111072820054425\">Anna-Mari Mönkkönen</a>"],"photo_reference":"Aaw_FcKqiPAu19crpcR5-0uH4dy4uXZr-tU3Yu_poavU8hswIAWyqKEXHfCWc9rymmwH2t51SC6lCooGuUu0sYP9VUjHHNi0fmUZGpt_ogAdoQFWGmK2l4OKGPTn0xgl3Mz76ewros7D6YtflsVs_1uARR6sDv1It0iI33_p3MosSb2gVV5z","width":3468}],"place_id":"ChIJJwFAR8kLkkYRGBui1u3I3tU","plus_code":{"compound_code":"5W8V+8V Helsinki","global_code":"9GG65W8V+8V"},"price_level":3,"rating":4.6,"reference":"ChIJJwFAR8kLkkYRGBui1u3I3tU","types":["restaurant","food","point_of_interest","establishment"],"user_ratings_total":973},{"business_status":"CLOSED_TEMPORARILY","formatted_address":"Mannerheimintie 56, 00260 Helsinki, Finland","geometry":{"location":{"lat":60.1811993,"lng":24.9273368},"viewport":{"northeast":{"lat":60.18255867989273,"lng":24.92878352989272},"southwest":{"lat":60.17985902010729,"lng":24.92608387010728}}},"icon":"https://maps.gstatic.com/mapfiles/place_api/icons/v1/png_71/restaurant-71.png","icon_background_color":"#FF9E67","icon_mask_base_uri":"https://maps.gstatic.com/mapfiles/place_api/icons/v2/restaurant_pinlet","name":"Ravintola Aino","permanently_closed":true,"photos":[{"height":2268,"html_attributions":["<a href=\"https://maps.google.com/maps/contrib/114154906942650483271\">Melek Wuori</a>"],"photo_reference":"Aaw_FcJ3bZV1JSHm8S7g6lAUaYvIFhOXb1Ss2B8lP3T_M96W5klz71XBJU4yDfTbo8ZQuzm3akk-AjkiLKtTDX2jrbeQzZZ9CXRV4DQRVmqZRXuehF4OKC2968-66ZsP_LOY0G3Cl2rr4Ljw4aA2M5NptB6v_Nyyg5D7A5N_B0oYGz5m097O","width":4032}],"place_id":"ChIJm5BA4s4LkkYRiFmZtio62Js","plus_code":{"compound_code":"5WJG+FW Helsinki","global_code":"9GG65WJG+FW"},"price_level":2,"rating":4.4,"reference":"ChIJm5BA4s4LkkYRiFmZtio62Js","types":["restaurant","food","point_of_interest","establishment"],"user_ratings_total":835},{"business_status":"OPERATIONAL","formatted_address":"Töölönkatu 27, 00260 Helsinki, Finland","geometry":{"location":{"lat":60.18029189999999,"lng":24.9250927},"viewport":{"northeast":{"lat":60.18168337989271,"lng":24.92624512989272},"southwest":{"lat":60.17898372010727,"lng":24.92354547010728}}},"icon":"https://maps.gstatic.com/mapfiles/place_api/icons/v1/png_71/restaurant-71.png","icon_background_color":"#FF9E67","icon_mask_base_uri":"https://maps.gstatic.com/mapfiles/place_api/icons/v2/restaurant_pinlet","name":"Restaurant Kuu","opening_hours":{"open_now":true},"photos":[{"height":1000,"html_attributions":["<a href=\"https://maps.google.com/maps/contrib/114373672995139241388\">Ravintola Kuu</a>"],"photo_reference":"Aaw_FcINkpbBAKECFuizMyvB5hLIvAak2_jSoT-x_hwv0F77uipVIUgcckLY1yHD_5z7ri0cccqVmnBznl2imeMT2PVmP0XMhfcsgIej3wOL5sRJRWBZZTbTwhefgbACzdy5MpU_5IuAcnQwWOUtsdWiPgyXyav1NjaPYRb0FrrumoYfASz3","width":1500}],"place_id":"ChIJLwkuni8KkkYRWfoUfpm7GS4","plus_code":{"compound_code":"5WJG+42 Helsinki","global_code":"9GG65WJG+42"},"price_level":3,"rating":4.6,"reference":"ChIJLwkuni8KkkYRWfoUfpm7GS4","types":["restaurant","food","point_of_interest","establishment"],"user_ratings_total":1256},{"business_status":"OPERATIONAL","formatted_address":"Kalevankatu 13, 00100 Helsinki, Finland","geometry":{"location":{"lat":60.1671369,"lng":24.937016},"viewport":{"northeast":{"lat":60.16843832989272,"lng":24.93843212989272},"southwest":{"lat":60.16573867010727,"lng":24.93573247010728}}},"icon":"https://maps.gstatic.com/mapfiles/place_api/icons/v1/png_71/restaurant-71.png","icon_background_color":"#FF9E67","icon_mask_base_uri":"https://maps.gstatic.com/mapfiles/place_api/icons/v2/restaurant_pinlet","name":"Restaurant Passio","opening_hours":{"open_now":false},"photos":[{"height":4032,"html_attributions":["<a href=\"https://maps.google.com/maps/contrib/108869347986482098921\">Vappu Sandström</a>"],"photo_reference":"Aaw_FcIheSs4jGvQYuU-ApakR0J2DJyujbcf1hwIZIsboUWd0kFvjGh8MmW2XWUBS3SapEXCqhnJRFtGpk8kFDBP91s1TfxH33NWdLzkPZ1iFro2DsDCV2nMfT0vQltfwtvgrRREi4LM0vZu-TxKjArFlaIK9drtdG2wRYJDYPTbRLwZJ1mk","width":3024}],"place_id":"ChIJsSqiDMsLkkYRUoOmF9l72eo","plus_code":{"compound_code":"5W8P+VR Helsinki","global_code":"9GG65W8P+VR"},"price_level":3,"rating":4.6,"reference":"ChIJsSqiDMsLkkYRUoOmF9l72eo","types":["restaurant","food","point_of_interest","establishment"],"user_ratings_total":716},{"business_status":"OPERATIONAL","formatted_address":"Iso Roobertinkatu 11, 00120 Helsinki, Finland","geometry":{"location":{"lat":60.1636301,"lng":24.9423631},"viewport":{"northeast":{"lat":60.16496472989273,"lng":24.94373582989272},"southwest":{"lat":60.16226507010729,"lng":24.94103617010728}}},"icon":"https://maps.gstatic.com/mapfiles/place_api/icons/v1/png_71/restaurant-71.png","icon_background_color":"#FF9E67","icon_mask_base_uri":"https://maps.gstatic.com/mapfiles/place_api/icons/v2/restaurant_pinlet","name":"Restaurant Natura","opening_hours":{"open_now":false},"photos":[{"height":727,"html_attributions":["<a href=\"https://maps.google.com/maps/contrib/105822003828637264886\">A Google User</a>"],"photo_reference":"Aaw_FcJRRnS6LkEEePPd70y-Sg9nIrj_080Yanre64tpxEyHsO9AFfP0utjrz_QgSuHABqPJpciaOrb3gmJSOTYxGJc_Fr0BXn3KDwIVPlUytyFx9pSMZd62cNQxM0vaFpVFXJqpx6xDTq-t_furKlzg7Zu3yFsTQmeJ7r4NDYSrJZI5AMwZ","width":1087}],"place_id":"ChIJpzAgkckLkkYRy_L0q7_9EO0","plus_code":{"compound_code":"5W7R+FW Helsinki","global_code":"9GG65W7R+FW"},"rating":4.7,"reference":"ChIJpzAgkckLkkYRy_L0q7_9EO0","types":["restaurant","food","point_of_interest","establishment"],"user_ratings_total":554},{"business_status":"OPERATIONAL","formatted_address":"Kanavaranta 7 F, 00160 Helsinki, Finland","geometry":{"location":{"lat":60.16905999999999,"lng":24.9611522},"viewport":{"northeast":{"lat":60.17044782989272,"lng":24.96250877989272},"southwest":{"lat":60.16774817010727,"lng":24.95980912010728}}},"icon":"https://maps.gstatic.com/mapfiles/place_api/icons/v1/png_71/restaurant-71.png","icon_background_color":"#FF9E67","icon_mask_base_uri":"https://maps.gstatic.com/mapfiles/place_api/icons/v2/restaurant_pinlet","name":"Ravintola Nokka","opening_hours":{"open_now":true},"photos":[{"height":3291,"html_attributions":["<a href=\"https://maps.google.com/maps/contrib/103038962994806889290\">Katja Aho</a>"],"photo_reference":"Aaw_FcLYjQud7kXnzvmO3oEbjtxe6XeP7CHho9bANOmX4JFggX8lUeGvPiCYpOmUUjbJuswEnAI4XVp3l0bA96uu56Lu-9ov4203gOnirFzo1ZAqR7tbDifNJgGTVazrp3Z6rpH_YXT_e4xVIuCTLKQqXVq-z_8AHpywbd8dWtksPNM1jj-I","width":2624}],"place_id":"ChIJaXUuQcULkkYRa6IUULmj8VI","plus_code":{"compound_code":"5X96+JF Helsinki","global_code":"9GG65X96+JF"},"price_level":3,"rating":4.6,"reference":"ChIJaXUuQcULkkYRa6IUULmj8VI","types":["restaurant","food","point_of_interest","establishment"],"user_ratings_total":850},{"business_status":"OPERATIONAL","formatted_address":"Urho Kekkosen katu 1, 00100 Helsinki, Finland","geometry":{"location":{"lat":60.1696554,"lng":24.9338707},"viewport":{"northeast":{"lat":60.17067702989272,"lng":24.93528282989272},"southwest":{"lat":60.16797737010727,"lng":24.93258317010728}}},"icon":"https://maps.gstatic.com/mapfiles/place_api/icons/v1/png_71/restaurant-71.png","icon_background_color":"#FF9E67","icon_mask_base_uri":"https://maps.gstatic.com/mapfiles/place_api/icons/v2/restaurant_pinlet","name":"Restaurant HOKU","opening_hours":{"open_now":true},"photos":[{"height":3024,"html_attributions":["<a href=\"https://maps.google.com/maps/contrib/116213384324228672948\">Sanni Jyrkinen</a>"],"photo_reference":"Aaw_FcI_EoFhmc6dTF8_keEgxemRBu-2t1h20CfLpACNcw3A47xoxSQ-R6RApQm6tGzg9maYZ7g9G5unPAdGSi4ZSIvYtlWDBBOgIEYd8RJ5fx4Sais2ZX3Qxn_Eqkh9F2K3Z1ANF4gDHMuAQ6099lYeYLE3EGAefP3dyp359DdVU5Jz5Cvt","width":4032}],"place_id":"ChIJVVVVVbYLkkYRjgwGXjmrbnY","plus_code":{"compound_code":"5W9M+VG Helsinki","global_code":"9GG65W9M+VG"},"price_level":2,"rating":4.5,"reference":"ChIJVVVVVbYLkkYRjgwGXjmrbnY","types":["restaurant","food","point_of_interest","establishment"],"user_ratings_total":1116},{"business_status":"OPERATIONAL","formatted_address":"Ainonkatu 3, 00100 Helsinki, Finland","geometry":{"location":{"lat":60.1719493,"lng":24.9314636},"viewport":{"northeast":{"lat":60.17325552989272,"lng":24.93287317989272},"southwest":{"lat":60.17055587010727,"lng":24.93017352010728}}},"icon":"https://maps.gstatic.com/mapfiles/place_api/icons/v1/png_71/restaurant-71.png","icon_background_color":"#FF9E67","icon_mask_base_uri":"https://maps.gstatic.com/mapfiles/place_api/icons/v2/restaurant_pinlet","name":"Finnjävel Sali & Salonki","opening_hours":{"open_now":true},"photos":[{"height":4436,"html_attributions":["<a href=\"https://maps.google.com/maps/contrib/103798383750277871962\">A Google User</a>"],"photo_reference":"Aaw_FcIZaj4SpraqPKEzqc9VWbBjcuOTxxCTtZcw4MTqc59n1oVkKc0ouUTsV8FQ-20lOj2C1CGyjQy7M47I0B4Dkq5HutrQ4GYSQt6OTaRS7_evBOH-PtE-ayeoES0zIsKcY9nbEiuJztMgq186_Etg2dUmiIn1r-aBXTm2k2P9qM-HgU1E","width":6654}],"place_id":"ChIJO6MCR88LkkYRLkqzBvXqrnk","plus_code":{"compound_code":"5WCJ+QH Helsinki","global_code":"9GG65WCJ+QH"},"price_level":4,"rating":4.5,"reference":"ChIJO6MCR88LkkYRLkqzBvXqrnk","types":["restaurant","food","point_of_interest","establishment"],"user_ratings_total":596},{"business_status":"OPERATIONAL","formatted_address":"Pohjoisesplanadi 5, 00170 Helsinki, Finland","geometry":{"location":{"lat":60.16807619999999,"lng":24.9548618},"viewport":{"northeast":{"lat":60.16938817989273,"lng":24.95622142989273},"southwest":{"lat":60.16668852010729,"lng":24.95352177010728}}},"icon":"https://maps.gstatic.com/mapfiles/place_api/icons/v1/png_71/restaurant-71.png","icon_background_color":"#FF9E67","icon_mask_base_uri":"https://maps.gstatic.com/mapfiles/place_api/icons/v2/restaurant_pinlet","name":"Restaurant Olo","opening_hours":{"open_now":true},"photos":[{"height":3024,"html_attributions":["<a href=\"https://maps.google.com/maps/contrib/115816449068329033195\">Teemu Tikkala</a>"],"photo_reference":"Aaw_FcLLfynQ1nKHitH3_XILFlF3-Jp-g6IYpTooGjFx_siux4KpkmBGqDJfCQKMey_5FdyDdqNBdPLvP38Tn--AGwM8cYFHUom9KJbB0AIcAn9eocktd0JJ0Stdp-4oTgnhH12bNAnkSyKgDAtlW3yu8rrkIkMs-iV6wbqbWA7qodYOOzpa","width":4032}],"place_id":"ChIJcbPkLMkLkkYRFeWoki1-0vk","plus_code":{"compound_code":"5X93+6W Helsinki","global_code":"9GG65X93+6W"},"price_level":4,"rating":4.8,"reference":"ChIJcbPkLMkLkkYRFeWoki1-0vk","types":["restaurant","food","point_of_interest","establishment"],"user_ratings_total":619},{"business_status":"OPERATIONAL","formatted_address":"Eteläesplanadi 14, 00130 Helsinki, Finland","geometry":{"location":{"lat":60.16697699999999,"lng":24.947335},"viewport":{"northeast":{"lat":60.16842322989272,"lng":24.94867582989272},"southwest":{"lat":60.16572357010727,"lng":24.94597617010728}}},"icon":"https://maps.gstatic.com/mapfiles/place_api/icons/v1/png_71/restaurant-71.png","icon_background_color":"#FF9E67","icon_mask_base_uri":"https://maps.gstatic.com/mapfiles/place_api/icons/v2/restaurant_pinlet","name":"Restaurant Savoy","opening_hours":{"open_now":true},"photos":[{"height":2736,"html_attributions":["<a href=\"https://maps.google.com/maps/contrib/114837144711041319191\">Michael Holtkamp</a>"],"photo_reference":"Aaw_FcIMw0mejRhyGTxHCQcv9wXrRxsZPykHnlaHg2MIjFNN5Qw7z40dOGxej-q_JYp3J__OEXtDLXi_iYYEj9kQXMM1dI-3bY4Rx0RFECrbPRd3srXmjXh4mYxCPGOnhrLWXbIhrcQ1eQCDnczm5F5hRjIyw5UGAL9XRonnptp1rOKRT_St","width":3648}],"place_id":"ChIJWVyxzs4LkkYRZgKZPa9kK74","plus_code":{"compound_code":"5W8W+QW Helsinki","global_code":"9GG65W8W+QW"},"price_level":4,"rating":4.6,"reference":"ChIJWVyxzs4LkkYRZgKZPa9kK74","types":["restaurant","food","point_of_interest","establishment"],"user_ratings_total":620},{"business_status":"OPERATIONAL","formatted_address":"Meritullinkatu 6, 00170 Helsinki, Finland","geometry":{"location":{"lat":60.1702533,"lng":24.9583546},"viewport":{"northeast":{"lat":60.17160817989273,"lng":24.95985812989273},"southwest":{"lat":60.16890852010728,"lng":24.95715847010728}}},"icon":"https://maps.gstatic.com/mapfiles/place_api/icons/v1/png_71/restaurant-71.png","icon_background_color":"#FF9E67","icon_mask_base_uri":"https://maps.gstatic.com/mapfiles/place_api/icons/v2/restaurant_pinlet","name":"Restaurant Kuurna","opening_hours":{"open_now":false},"photos":[{"height":3072,"html_attributions":["<a href=\"https://maps.google.com/maps/contrib/111375801182004041761\">Kieran Vora</a>"],"photo_reference":"Aaw_FcLHFnZfbUilJuCOLRFaXBAER_74urOn_8ysTZRd5D4Negui5QOQRvGuWn-thSkrWkjTHH_qM_X6Lt__QyNO0PvFRt-hshXfGw_U26aDcaWBojgKY8FOkhoX7tw81Cx2oerkHkqEihEJIEPT-ckjnz6gvqa1qhVe79lmJ7akAlWGALVf","width":4080}],"place_id":"ChIJlUEA_88LkkYR9WVkHIic9IY","plus_code":{"compound_code":"5XC5+48 Helsinki","global_code":"9GG65XC5+48"},"price_level":3,"rating":4.7,"reference":"ChIJlUEA_88LkkYR9WVkHIic9IY","types":["restaurant","food","point_of_interest","establishment"],"user_ratings_total":393},{"business_status":"OPERATIONAL","formatted_address":"Eteläranta 10, 00130 Helsinki, Finland","geometry":{"location":{"lat":60.165219,"lng":24.9522632},"viewport":{"northeast":{"lat":60.16657312989272,"lng":24.95381942989272},"southwest":{"lat":60.16387347010728,"lng":24.95111977010728}}},"icon":"https://maps.gstatic.com/mapfiles/place_api/icons/v1/png_71/restaurant-71.png","icon_background_color":"#FF9E67","icon_mask_base_uri":"https://maps.gstatic.com/mapfiles/place_api/icons/v2/restaurant_pinlet","name":"Ravintola Palace","opening_hours":{"open_now":false},"photos":[{"height":2268,"html_attributions":["<a href=\"https://maps.google.com/maps/contrib/110181463637155747542\">Geoff Booth</a>"],"photo_reference":"Aaw_FcK1SqUeLZ-hKYrl7QNTaUbsnQuqQI09DGVvRqPbb9njvy8ewbzrIsVCDQK_zK6kK67kOmI-yMBBHsvvwitgrccQNKOGzVZWmfNAjVZbQwQcduLXBT8f2lYpVfkEhuV1G179kF5CMkO9uX1kiw0BOD1xyCs4R1VI-qH9CCjOHmi-jLa8","width":4032}],"place_id":"ChIJpdIjrMgLkkYRxba2xc1Dy5w","plus_code":{"compound_code":"5X82+3W Helsinki","global_code":"9GG65X82+3W"},"price_level":4,"rating":4.8,"reference":"ChIJpdIjrMgLkkYRxba2xc1Dy5w","types":["restaurant","food","point_of_interest","establishment"],"user_ratings_total":252},{"business_status":"OPERATIONAL","formatted_address":"Uudenmaankatu 13, 00120 Helsinki, Finland","geometry":{"location":{"lat":60.1646839,"lng":24.9411427},"viewport":{"northeast":{"lat":60.16600587989272,"lng":24.94253222989272},"southwest":{"lat":60.16330622010727,"lng":24.93983257010728}}},"icon":"https://maps.gstatic.com/mapfiles/place_api/icons/v1/png_71/restaurant-71.png","icon_background_color":"#FF9E67","icon_mask_base_uri":"https://maps.gstatic.com/mapfiles/place_api/icons/v2/restaurant_pinlet","name":"Restaurant Penny","opening_hours":{"open_now":true},"photos":[{"height":3024,"html_attributions":["<a href=\"https://maps.google.com/maps/contrib/114699966392913799499\">Linda Pärnänen</a>"],"photo_reference":"Aaw_FcKLm9JvTSUUqjReI3WESthwgmVs5ajlrYGfYDfikVTzPv--3tHaaOfwitUuhR6CrAnVdHHI7V8vePqXRNJMqf5s_YnF2Qo7S-BrsTbzdvBNSM2k70IdsrObQGZo_qtvqODMFhDwFFgC7N2XaH5_BC7-thpEARTT7P8jfkCwVMwTud0","width":4032}],"place_id":"ChIJvQPvf8kLkkYRq52CG70bHSo","plus_code":{"compound_code":"5W7R+VF Helsinki","global_code":"9GG65W7R+VF"},"price_level":2,"rating":4.4,"reference":"ChIJvQPvf8kLkkYRq52CG70bHSo","types":["restaurant","food","point_of_interest","establishment"],"user_ratings_total":391},{"business_status":"CLOSED_TEMPORARILY","formatted_address":"Annankatu 22, 00100 Helsinki, Finland","geometry":{"location":{"lat":60.16669049999999,"lng":24.9369734},"viewport":{"northeast":{"lat":60.16806482989272,"lng":24.93838657989272},"southwest":{"lat":60.16536517010728,"lng":24.93568692010728}}},"icon":"https://maps.gstatic.com/mapfiles/place_api/icons/v1/png_71/restaurant-71.png","icon_background_color":"#FF9E67","icon_mask_base_uri":"https://maps.gstatic.com/mapfiles/place_api/icons/v2/restaurant_pinlet","name":"Lappi Ravintola","permanently_closed":true,"photos":[{"height":3024,"html_attributions":["<a href=\"https://maps.google.com/maps/contrib/107755886393257968221\">Leonardo Cavalera</a>"],"photo_reference":"Aaw_FcJQNoXQfZaEFAD3rdEPECZK1_k8uNdYjmVlmT4dtHzmAJlytguIE0Qcr8VUc1G5C2IVlstL01MUYrn6PtpySsj9xxkyoTR1V4_GvbbWEJ8NAROIvFeERqO70xejgFJtawjx8io_2Qh3BESIAw-VpzUxq2uPxeJEKT1iXkZoUqWVLMDb","width":4032}],"place_id":"ChIJ36bwCcsLkkYRB4sbBayISh0","plus_code":{"compound_code":"5W8P+MQ Helsinki","global_code":"9GG65W8P+MQ"},"price_level":3,"rating":4.5,"reference":"ChIJ36bwCcsLkkYRB4sbBayISh0","types":["restaurant","food","point_of_interest","establishment"],"user_ratings_total":1720},{"business_status":"OPERATIONAL","formatted_address":"Eerikinkatu 43, 00180 Helsinki, Finland","geometry":{"location":{"lat":60.16359610000001,"lng":24.9247984},"viewport":{"northeast":{"lat":60.16491112989272,"lng":24.92615592989272},"southwest":{"lat":60.16221147010728,"lng":24.92345627010728}}},"icon":"https://maps.gstatic.com/mapfiles/place_api/icons/v1/png_71/restaurant-71.png","icon_background_color":"#FF9E67","icon_mask_base_uri":"https://maps.gstatic.com/mapfiles/place_api/icons/v2/restaurant_pinlet","name":"Ravintola Kannas","opening_hours":{"open_now":true},"photos":[{"height":3000,"html_attributions":["<a href=\"https://maps.google.com/maps/contrib/101831360621966862437\">101831360621966862437</a>"],"photo_reference":"Aaw_FcLEuFwlubMbURCGb8UOH_t9v4b8opWqLopwpV5AF5d02dKc5O_cflMSUJn1JsOW_M4fpZfoa8cWWYrL6eEUd3H0PRfBn43X3a2TKSAHxJrkwF8bqGKl0IAGIu-E7SRYmTkkFvA_gPPfG2etv3XzzzhKdDCg8I50q0Dl_maoCtD1ucoN","width":4000}],"place_id":"ChIJTTFxlkoKkkYRWfiGFt7gcxE","plus_code":{"compound_code":"5W7F+CW Helsinki","global_code":"9GG65W7F+CW"},"price_level":2,"rating":4.4,"reference":"ChIJTTFxlkoKkkYRWfiGFt7gcxE","types":["restaurant","food","point_of_interest","establishment"],"user_ratings_total":1333},{"business_status":"OPERATIONAL","formatted_address":"Eteläesplanadi 8, 00101 Helsinki, Finland","geometry":{"location":{"lat":60.1671103,"lng":24.9492149},"viewport":{"northeast":{"lat":60.16850817989272,"lng":24.95053042989272},"southwest":{"lat":60.16580852010728,"lng":24.94783077010728}}},"icon":"https://maps.gstatic.com/mapfiles/place_api/icons/v1/png_71/restaurant-71.png","icon_background_color":"#FF9E67","icon_mask_base_uri":"https://maps.gstatic.com/mapfiles/place_api/icons/v2/restaurant_pinlet","name":"Restaurant Pompier","opening_hours":{"open_now":true},"photos":[{"height":3024,"html_attributions":["<a href=\"https://maps.google.com/maps/contrib/103746312763177407784\">Alejandra Kolehmainen</a>"],"photo_reference":"Aaw_FcKpHtUupgcpMIqSaPKNTDea0h7_uUntb-iv99wN1vxbUnc1EiPle6KZIjQqpBgjgxbfu4404iW8Kb9bV1x8pfeK4niw_rrRSNFwbaGyuf1bKvhOGLOdI86Z1-jU6N0SorqZNGCl11QFcVfiekNqCi97bQoBQe7nwiC81dHuAHAFb5oP","width":4032}],"place_id":"ChIJd_792M4LkkYRZgmZPz6xkUc","plus_code":{"compound_code":"5W8X+RM Helsinki","global_code":"9GG65W8X+RM"},"price_level":2,"rating":4.6,"reference":"ChIJd_792M4LkkYRZgmZPz6xkUc","types":["restaurant","food","point_of_interest","establishment"],"user_ratings_total":806},{"business_status":"OPERATIONAL","formatted_address":"Aleksanterinkatu 15, 00100 Helsinki, Finland","geometry":{"location":{"lat":60.1692161,"lng":24.9442481},"viewport":{"northeast":{"lat":60.17039837989272,"lng":24.94588202989272},"southwest":{"lat":60.16769872010727,"lng":24.94318237010728}}},"icon":"https://maps.gstatic.com/mapfiles/place_api/icons/v1/png_71/restaurant-71.png","icon_background_color":"#FF9E67","icon_mask_base_uri":"https://maps.gstatic.com/mapfiles/place_api/icons/v2/restaurant_pinlet","name":"Santa Fé Restaurant","opening_hours":{"open_now":true},"photos":[{"height":3024,"html_attributions":["<a href=\"https://maps.google.com/maps/contrib/111124930081935539248\">Mikko Tyllinen</a>"],"photo_reference":"Aaw_FcJwV9uEyKBVdt71v-ycphm_ABSc5f-u0tpjAou2HJnBqA90OB8Q3uDMbdwwPSO74axTmUnpb0ddIPka35uipZay_LRKbWX7YrN6yvxrQjsfz-YvSiQb20a5xRULvK0JeAWs7MT9zVMUpW_J7IA5DfXZldXeIhCAji0tITWAtz1slQiM","width":4032}],"place_id":"ChIJg-RmOswLkkYRrQIbjZpc-vw","plus_code":{"compound_code":"5W9V+MM Helsinki","global_code":"9GG65W9V+MM"},"price_level":2,"rating":3.9,"reference":"ChIJg-RmOswLkkYRrQIbjZpc-vw","types":["restaurant","food","point_of_interest","establishment"],"user_ratings_total":2347},{"business_status":"OPERATIONAL","formatted_address":"Museokatu 17, 00100 Helsinki, Finland","geometry":{"location":{"lat":60.1752656,"lng":24.924989},"viewport":{"northeast":{"lat":60.17652627989272,"lng":24.92630642989272},"southwest":{"lat":60.17382662010728,"lng":24.92360677010727}}},"icon":"https://maps.gstatic.com/mapfiles/place_api/icons/v1/png_71/restaurant-71.png","icon_background_color":"#FF9E67","icon_mask_base_uri":"https://maps.gstatic.com/mapfiles/place_api/icons/v2/restaurant_pinlet","name":"Ravintola KuuKuu","opening_hours":{"open_now":true},"photos":[{"height":2849,"html_attributions":["<a href=\"https://maps.google.com/maps/contrib/113026795875276214074\">Ravintola Kuu Kuu</a>"],"photo_reference":"Aaw_FcJ0MoGDeEf3KssHcpAXBIM1UdCXc2vRZQM-GH2tsbC4BSpk9KD3og2Vz5uByAsxlr_laKA3J60G-HGOPZTqijXeEzCFTtO5AdcpfNzVF7nQcZCoUJka4xrWaKrlM0OxdcmAG7GkXP7ZsZutNN1motwK9NKIc3oJsFWcivYym1iVuhuk","width":4273}],"place_id":"ChIJmZ_2uzEKkkYRi4MhlKhFByw","plus_code":{"compound_code":"5WGF+4X Helsinki","global_code":"9GG65WGF+4X"},"price_level":2,"rating":4.4,"reference":"ChIJmZ_2uzEKkkYRi4MhlKhFByw","types":["restaurant","food","point_of_interest","establishment"],"user_ratings_total":915},{"business_status":"OPERATIONAL","formatted_address":"Simonkatu 9, 00100 Helsinki, Finland","geometry":{"location":{"lat":60.1691474,"lng":24.9355373},"viewport":{"northeast":{"lat":60.17040862989272,"lng":24.93701922989272},"southwest":{"lat":60.16770897010728,"lng":24.93431957010728}}},"icon":"https://maps.gstatic.com/mapfiles/place_api/icons/v1/png_71/restaurant-71.png","icon_background_color":"#FF9E67","icon_mask_base_uri":"https://maps.gstatic.com/mapfiles/place_api/icons/v2/restaurant_pinlet","name":"Ravintola Más Helsinki","opening_hours":{"open_now":true},"photos":[{"height":2988,"html_attributions":["<a href=\"https://maps.google.com/maps/contrib/102157424797948367801\">Georgia Berichelli</a>"],"photo_reference":"Aaw_FcKOgKgxIAwU0ah-TlqtNx8Ub0iQs7dqQCrDwDzlu1Ea4ScUlJfMfbGs_tet-MHOmVi4i7LpJhY8t6y0UvOBBkIdbNPDUPZ5Y6ZjawzGkMxbmtaROPyKRf0GzE6apeVUHroqhetqb02PfoB49LDGchoCWX_VipfNeGqfSVKhHf3NIvV3","width":5312}],"place_id":"ChIJh2sdpswLkkYRbileQbzOyRY","plus_code":{"compound_code":"5W9P+M6 Helsinki","global_code":"9GG65W9P+M6"},"price_level":2,"rating":4.3,"reference":"ChIJh2sdpswLkkYRbileQbzOyRY","types":["restaurant","food","point_of_interest","establishment"],"user_ratings_total":383},{"business_status":"OPERATIONAL","formatted_address":"Fredrikinkatu 41, 00120 Helsinki, Finland","geometry":{"location":{"lat":60.16524599999999,"lng":24.936065},"viewport":{"northeast":{"lat":60.16655807989271,"lng":24.93731377989272},"southwest":{"lat":60.16385842010727,"lng":24.93461412010728}}},"icon":"https://maps.gstatic.com/mapfiles/place_api/icons/v1/png_71/restaurant-71.png","icon_background_color":"#FF9E67","icon_mask_base_uri":"https://maps.gstatic.com/mapfiles/place_api/icons/v2/restaurant_pinlet","name":"Restaurant Muru","opening_hours":{"open_now":false},"photos":[{"height":1050,"html_attributions":["<a href=\"https://maps.google.com/maps/contrib/112315955123008138537\">Muru Ravintola</a>"],"photo_reference":"Aaw_FcLCpsR5OJRnSLoOU7pBQwY2aNaZR0qZm7Yz8p3F4bOkvFKsjkj7wegekCZuMB8cxUZM3YOBNBzVPZBtBdq_M7sB_LiVRy90mdvWF8XlnAJ5Dd8nTFzYHse1rMxuzGd-hmXzi32--gnl6s4UwIzm2QvA_Pk5HVYMBUHmD6aQLM55wR2g","width":1680}],"place_id":"ChIJleLhVsoLkkYRDc6N8_tElmY","plus_code":{"compound_code":"5W8P+3C Helsinki","global_code":"9GG65W8P+3C"},"price_level":3,"rating":4.5,"reference":"ChIJleLhVsoLkkYRDc6N8_tElmY","types":["restaurant","food","point_of_interest","establishment"],"user_ratings_total":821},{"business_status":"OPERATIONAL","formatted_address":"Pieni Roobertinkatu 8, 00130 Helsinki, Finland","geometry":{"location":{"lat":60.164116,"lng":24.9463156},"viewport":{"northeast":{"lat":60.16540647989272,"lng":24.94756352989272},"southwest":{"lat":60.16270682010728,"lng":24.94486387010728}}},"icon":"https://maps.gstatic.com/mapfiles/place_api/icons/v1/png_71/bar-71.png","icon_background_color":"#FF9E67","icon_mask_base_uri":"https://maps.gstatic.com/mapfiles/place_api/icons/v2/bar_pinlet","name":"Ravintola Vinkkeli","opening_hours":{"open_now":true},"photos":[{"height":1280,"html_attributions":["<a href=\"https://maps.google.com/maps/contrib/107503826094201654636\">Ravintola Vinkkeli</a>"],"photo_reference":"Aaw_FcIkqKbGDiogMNBTR7BbP5SM0n5DSDAUP9hwbgvHORgwCQvnHKliHb8RhLxOphX25zvQ9EPp0U-NQtTTJTSVgBwH-5xjRlyEgmBqVrHkuE5abU0iFktkWrMoRJGIWw104X4XYLgNn4N_6XZgKtqURXYguGRTN8X6ovzwkaXHBqH62_Iy","width":1920}],"place_id":"ChIJibx2AskLkkYRPvObPYjCGe0","plus_code":{"compound_code":"5W7W+JG Helsinki","global_code":"9GG65W7W+JG"},"price_level":3,"rating":4.8,"reference":"ChIJibx2AskLkkYRPvObPYjCGe0","types":["bar","restaurant","food","point_of_interest","establishment"],"user_ratings_total":568},{"business_status":"OPERATIONAL","formatted_address":"Kanavaranta 7, 00160 Helsinki, Finland","geometry":{"location":{"lat":60.16904939999999,"lng":24.959879},"viewport":{"northeast":{"lat":60.17041257989272,"lng":24.96122562989272},"southwest":{"lat":60.16771292010728,"lng":24.95852597010728}}},"icon":"https://maps.gstatic.com/mapfiles/place_api/icons/v1/png_71/restaurant-71.png","icon_background_color":"#FF9E67","icon_mask_base_uri":"https://maps.gstatic.com/mapfiles/place_api/icons/v2/restaurant_pinlet","name":"Restaurant Shelter","opening_hours":{"open_now":true},"photos":[{"height":3456,"html_attributions":["<a href=\"https://maps.google.com/maps/contrib/111955878285349149690\">Samuel Gustafsson</a>"],"photo_reference":"Aaw_FcIWa_RhA5152NYz_mfY7Tdk_VZksm1-5L6EmFUtevmnb92_RpDMF_IcZrrDEBOIKOaaHsWNqZyNPWjE357SsdGA0qyElTGWXRxgGd06tU4ZzocOxBjEW7DFU6SR7x_q_CjjVNd3tOL4u3k12W6JMCEblZu-SiH7ZU4HC7E2Sg-D9WGv","width":4608}],"place_id":"ChIJq_GtQsULkkYR4sUmMYUie0w","plus_code":{"compound_code":"5X95+JX Helsinki","global_code":"9GG65X95+JX"},"price_level":3,"rating":4.5,"reference":"ChIJq_GtQsULkkYR4sUmMYUie0w","types":["restaurant","food","point_of_interest","establishment"],"user_ratings_total":784},{"business_status":"OPERATIONAL","formatted_address":"Kasarmikatu 44, 00130 Helsinki, Finland","geometry":{"location":{"lat":60.16622030000001,"lng":24.9475774},"viewport":{"northeast":{"lat":60.16762972989273,"lng":24.94901157989272},"southwest":{"lat":60.16493007010729,"lng":24.94631192010728}}},"icon":"https://maps.gstatic.com/mapfiles/place_api/icons/v1/png_71/restaurant-71.png","icon_background_color":"#FF9E67","icon_mask_base_uri":"https://maps.gstatic.com/mapfiles/place_api/icons/v2/restaurant_pinlet","name":"Ravintola Emo","opening_hours":{"open_now":true},"photos":[{"height":3072,"html_attributions":["<a href=\"https://maps.google.com/maps/contrib/100815199825173596233\">Alexis Sanlaville</a>"],"photo_reference":"Aaw_FcL_RabcU-KIStl8AJUz7_mzlQIqToODvmUKGFrakD2PZctsUwm03gg4n_uImhxxzMe4olmwwEDWfFQ8UOdSmYIFrwNEnxOA7PLptStWtEDbM8JM2JOo9T-yyd4TcvAFj91jCoettzzRmeSTgchehxM6S9NtsCexO_PpcVupbM6b8afy","width":4080}],"place_id":"ChIJP_oDLckLkkYRPraiCa4LnrE","plus_code":{"compound_code":"5W8X+F2 Helsinki","global_code":"9GG65W8X+F2"},"rating":4.5,"reference":"ChIJP_oDLckLkkYRPraiCa4LnrE","types":["restaurant","food","point_of_interest","establishment"],"user_ratings_total":785},{"business_status":"OPERATIONAL","formatted_address":"Unioninkatu 14, 00130 Helsinki, Finland","geometry":{"location":{"lat":60.16502379999999,"lng":24.9510154},"viewport":{"northeast":{"lat":60.16637957989272,"lng":24.95257907989272},"southwest":{"lat":60.16367992010727,"lng":24.94987942010728}}},"icon":"https://maps.gstatic.com/mapfiles/place_api/icons/v1/png_71/restaurant-71.png","icon_background_color":"#FF9E67","icon_mask_base_uri":"https://maps.gstatic.com/mapfiles/place_api/icons/v2/restaurant_pinlet","name":"Restaurant VERSION","opening_hours":{"open_now":true},"photos":[{"height":6144,"html_attributions":["<a href=\"https://maps.google.com/maps/contrib/110929240553107640649\">kajtcu</a>"],"photo_reference":"Aaw_FcJqMtA560-tLrUoOabjkc18YAx1NWx9joTeTUYmBOCGgyhwwRWUrVqGOukb7SVCuIigeWs6A9nu32LTXxCgN3yc9r5hVZYWSskQ5p2hIyy-OI0zCxxwGVidJi46DMN3YijyQ6mIZYhmywsH0YeHMWuF5C1PbAcgpCO5Z0LGuyzzROXY","width":8192}],"place_id":"ChIJ19lQ12gLkkYR0RD9MUvt_vQ","plus_code":{"compound_code":"5X82+2C Helsinki","global_code":"9GG65X82+2C"},"rating":4.5,"reference":"ChIJ19lQ12gLkkYR0RD9MUvt_vQ","types":["restaurant","food","point_of_interest","establishment"],"user_ratings_total":135},{"business_status":"OPERATIONAL","formatted_address":"Iso Roobertinkatu 1, 00120 Helsinki, Finland","geometry":{"location":{"lat":60.1642049,"lng":24.943981},"viewport":{"northeast":{"lat":60.16554762989272,"lng":24.94531507989273},"southwest":{"lat":60.16284797010728,"lng":24.94261542010728}}},"icon":"https://maps.gstatic.com/mapfiles/place_api/icons/v1/png_71/restaurant-71.png","icon_background_color":"#FF9E67","icon_mask_base_uri":"https://maps.gstatic.com/mapfiles/place_api/icons/v2/restaurant_pinlet","name":"Restaurant Yes Yes Yes","opening_hours":{"open_now":true},"photos":[{"height":2000,"html_attributions":["<a href=\"https://maps.google.com/maps/contrib/104180744345778712792\">A Google User</a>"],"photo_reference":"Aaw_FcJwmN-VVTJsGBaUSGUPFouPwmX4RNgvvTfqrBFtry-6J9P0JZNgESMd1ZGCWSxKt3uhDDMhw4XQnB6aSCIh-a3FIu-z9rfURPcPrMCTXuj3upyVww0RzSA_Gt4WyowFmwYwX3zUOEmTzO_meLDFXH4gw2qnbEliMfENVV4k8LSF-vmM","width":3000}],"place_id":"ChIJNemmCskLkkYRtUtQ5ZXEdLc","plus_code":{"compound_code":"5W7V+MH Helsinki","global_code":"9GG65W7V+MH"},"price_level":2,"rating":4.3,"reference":"ChIJNemmCskLkkYRtUtQ5ZXEdLc","types":["bar","restaurant","food","point_of_interest","establishment"],"user_ratings_total":1153},{"business_status":"OPERATIONAL","formatted_address":"Pieni Roobertinkatu 2, 00130 Helsinki, Finland","geometry":{"location":{"lat":60.16415139999999,"lng":24.9477489},"viewport":{"northeast":{"lat":60.16554872989272,"lng":24.94901452989272},"southwest":{"lat":60.16284907010728,"lng":24.94631487010728}}},"icon":"https://maps.gstatic.com/mapfiles/place_api/icons/v1/png_71/restaurant-71.png","icon_background_color":"#FF9E67","icon_mask_base_uri":"https://maps.gstatic.com/mapfiles/place_api/icons/v2/restaurant_pinlet","name":"Restaurant Pastis","opening_hours":{"open_now":true},"photos":[{"height":3000,"html_attributions":["<a href=\"https://maps.google.com/maps/contrib/106634299619363662108\">Rangsima Sunila</a>"],"photo_reference":"Aaw_FcLQXLxZcUqS-Yy5VP_jNuVmHcWSbqiQ80Ek1WYMQxN1ASiQMcE-YcCQRCSy_KwHboN21GmkrZZHc9tvuArWxpHdrb_BTVV0kuXJogaIebiydaor8DGaciU80-1qVmWCR33frvop440bPM2iXtQK-br6cb_MkBn7zHzcFp_Yf518g3jF","width":4000}],"place_id":"ChIJj2VC5cgLkkYRKXTmQVpOs_s","plus_code":{"compound_code":"5W7X+M3 Helsinki","global_code":"9GG65W7X+M3"},"price_level":3,"rating":4.4,"reference":"ChIJj2VC5cgLkkYRKXTmQVpOs_s","types":["restaurant","food","point_of_interest","establishment"],"user_ratings_total":595},{"business_status":"OPERATIONAL","formatted_address":"Tehtaankatu 27-29 (sisäpiha), 00150 Helsinki, Finland","geometry":{"location":{"lat":60.15784360000001,"lng":24.9345428},"viewport":{"northeast":{"lat":60.15914332989272,"lng":24.93590197989272},"southwest":{"lat":60.15644367010728,"lng":24.93320232010728}}},"icon":"https://maps.gstatic.com/mapfiles/place_api/icons/v1/png_71/restaurant-71.png","icon_background_color":"#FF9E67","icon_mask_base_uri":"https://maps.gstatic.com/mapfiles/place_api/icons/v2/restaurant_pinlet","name":"Restaurant Baskeri & Basso","opening_hours":{"open_now":false},"photos":[{"height":1512,"html_attributions":["<a href=\"https://maps.google.com/maps/contrib/116220287356217119304\">Jasmiina Laurmaa</a>"],"photo_reference":"Aaw_FcKxl3cA6LZZjHNZw-Ijzjq4I7Kddo8a3pgIx9xrRh3aHf_3XPna0buhj703jKi1xyjBpWHZfgZnSsuiAwDvbviZmMFrGE7dsmlxD5MvrAsKVYvTIbxzTNmv3F_3l8zlIgpfxIfVd16wHDDHsT-S9Sb1zcu4l2Js6-kMztP0svT22afL","width":2688}],"place_id":"ChIJd8mTo7YLkkYRXL0C9Si-nZk","plus_code":{"compound_code":"5W5M+4R Helsinki","global_code":"9GG65W5M+4R"},"price_level":2,"rating":4.8,"reference":"ChIJd8mTo7YLkkYRXL0C9Si-nZk","types":["restaurant","food","point_of_interest","establishment"],"user_ratings_total":791},{"business_status":"OPERATIONAL","formatted_address":"Albertinkatu 36, 00180 Helsinki, Finland","geometry":{"location":{"lat":60.16470829999999,"lng":24.9325917},"viewport":{"northeast":{"lat":60.16607657989272,"lng":24.93399492989272},"southwest":{"lat":60.16337692010728,"lng":24.93129527010727}}},"icon":"https://maps.gstatic.com/mapfiles/place_api/icons/v1/png_71/restaurant-71.png","icon_background_color":"#FF9E67","icon_mask_base_uri":"https://maps.gstatic.com/mapfiles/place_api/icons/v2/restaurant_pinlet","name":"Restaurant Grön","opening_hours":{"open_now":true},"photos":[{"height":3024,"html_attributions":["<a href=\"https://maps.google.com/maps/contrib/104002817070353385121\">Jarkko Ojala</a>"],"photo_reference":"Aaw_FcIj-Z5RshDRTb1zdzwS1XGdg7-QaeO_JolFd3I3j-1jDFP7a3Og3O2hI-XDQBRKbOlmt0dA0CoX-Pzb1V--_2hxcx5raXzpS03cnrxQDOuzCr6rSWqsyfk7u6yIK_jQCMn190zolZ2en7F3ByBX-UZVO4Sx1TCRCMwcHkqjlh-hpsnc","width":4032}],"place_id":"ChIJ00j2lMoLkkYRnvJPB2_P81I","plus_code":{"compound_code":"5W7M+V2 Helsinki","global_code":"9GG65W7M+V2"},"price_level":3,"rating":4.7,"reference":"ChIJ00j2lMoLkkYRnvJPB2_P81I","types":["restaurant","food","point_of_interest","establishment"],"user_ratings_total":527},{"business_status":"OPERATIONAL","formatted_address":"Pohjoisesplanadi 15, 00170 Helsinki, Finland","geometry":{"location":{"lat":60.16805559999999,"lng":24.9519444},"viewport":{"northeast":{"lat":60.16932567989272,"lng":24.95328497989272},"southwest":{"lat":60.16662602010728,"lng":24.95058532010728}}},"icon":"https://maps.gstatic.com/mapfiles/place_api/icons/v1/png_71/generic_business-71.png","icon_background_color":"#7B9EB0","icon_mask_base_uri":"https://maps.gstatic.com/mapfiles/place_api/icons/v2/generic_pinlet","name":"Restaurant Salutorget","opening_hours":{"open_now":true},"photos":[{"height":3024,"html_attributions":["<a href=\"https://maps.google.com/maps/contrib/100610093780770839224\">Mats Reuterswärd</a>"],"photo_reference":"Aaw_FcLJMW7c45gM1K9IJdDE0mczrmtYMqu3JuKeEoZBYu2xmC6lTgrzQDZq9moa2_YMv7nzmIhbnfIzynX25qw5xkN8VIr4EMZNjMUBKAHBFbhYNwydK9oo-YAI5q2joQhWm_lqS3pfOblJeV8oBu2Q_84lPE97Qy4RMIGM5VitHb6ebkTp","width":4032}],"place_id":"ChIJw79lu84LkkYRv_B3qFspPc8","plus_code":{"compound_code":"5X92+6Q Helsinki","global_code":"9GG65X92+6Q"},"price_level":3,"rating":4.1,"reference":"ChIJw79lu84LkkYRv_B3qFspPc8","types":["cafe","restaurant","food","point_of_interest","establishment"],"user_ratings_total":558},{"business_status":"OPERATIONAL","formatted_address":"Pursimiehenkatu 27, 00150 Helsinki, Finland","geometry":{"location":{"lat":60.1586446,"lng":24.9349234},"viewport":{"northeast":{"lat":60.15994732989272,"lng":24.93630167989273},"southwest":{"lat":60.15724767010727,"lng":24.93360202010728}}},"icon":"https://maps.gstatic.com/mapfiles/place_api/icons/v1/png_71/restaurant-71.png","icon_background_color":"#FF9E67","icon_mask_base_uri":"https://maps.gstatic.com/mapfiles/place_api/icons/v2/restaurant_pinlet","name":"Ravintola Nerone","opening_hours":{"open_now":true},"photos":[{"height":4624,"html_attributions":["<a href=\"https://maps.google.com/maps/contrib/102444678950697364780\">olga purtova</a>"],"photo_reference":"Aaw_FcKMP4LjRVCIZqFlQ98JTZZ7TZwUGGY1X9dgM84DPSUXLFQKEgYlm4sNIfUZx1eV0NaQyvIR8GRB5NPic4rNJtSjaGGjkgh2NHFX2eNsbfqpKgiw6R5RR2ToVo3wAL_P_Vpdr1Ky1kBErC05mMp8E4sBdioGV5KTomxhbZWaAr1J3Rsn","width":3468}],"place_id":"ChIJW3h9m7YLkkYRTrabzvvuf7k","plus_code":{"compound_code":"5W5M+FX Helsinki","global_code":"9GG65W5M+FX"},"price_level":2,"rating":4.4,"reference":"ChIJW3h9m7YLkkYRTrabzvvuf7k","types":["restaurant","food","point_of_interest","establishment"],"user_ratings_total":1133},{"business_status":"OPERATIONAL","formatted_address":"Mannerheimintie 3, 00100 Helsinki, Finland","geometry":{"location":{"lat":60.1688716,"lng":24.9410505},"viewport":{"northeast":{"lat":60.17012577989273,"lng":24.94214427989272},"southwest":{"lat":60.16742612010729,"lng":24.93944462010728}}},"icon":"https://maps.gstatic.com/mapfiles/place_api/icons/v1/png_71/restaurant-71.png","icon_background_color":"#FF9E67","icon_mask_base_uri":"https://maps.gstatic.com/mapfiles/place_api/icons/v2/restaurant_pinlet","name":"Restaurant Fat Lizard City","opening_hours":{"open_now":true},"photos":[{"height":1536,"html_attributions":["<a href=\"https://maps.google.com/maps/contrib/104563121453003101746\">Wong ArHo</a>"],"photo_reference":"Aaw_FcLG9noV8ECe2JN9YbK8E59e50ek7OA_Jo2tYReAYnvZBcrG534cwM6RmG2A04UMfJ5DC8swRDdp81pNor0kLFodvc5FOtYF1jJa1bHOE7KUW05xlOG5HYwZefQdklhHFmjxmyqBwz4Z6tNfYy7sQUemMlPlCOd4dR_s5eH5tfNnshC2","width":2048}],"place_id":"ChIJ79BXHGYLkkYRc-4gFm1UpUA","plus_code":{"compound_code":"5W9R+GC Helsinki","global_code":"9GG65W9R+GC"},"price_level":2,"rating":3.8,"reference":"ChIJ79BXHGYLkkYRc-4gFm1UpUA","types":["restaurant","food","point_of_interest","establishment"],"user_ratings_total":281},{"business_status":"OPERATIONAL","formatted_address":"Runeberginkatu 55, 00260 Helsinki, Finland","geometry":{"location":{"lat":60.1794619,"lng":24.9237587},"viewport":{"northeast":{"lat":60.18081837989273,"lng":24.92509417989272},"southwest":{"lat":60.17811872010729,"lng":24.92239452010728}}},"icon":"https://maps.gstatic.com/mapfiles/place_api/icons/v1/png_71/restaurant-71.png","icon_background_color":"#FF9E67","icon_mask_base_uri":"https://maps.gstatic.com/mapfiles/place_api/icons/v2/restaurant_pinlet","name":"Restaurant Young Hearts","opening_hours":{"open_now":true},"photos":[{"height":1000,"html_attributions":["<a href=\"https://maps.google.com/maps/contrib/116352246681052546408\">A Google User</a>"],"photo_reference":"Aaw_FcI20pBifp9gN0sAn74XDClgTHtKJZbE7uJpqLY_OurWzyV0cXu28SwDigpWUi4PJCEHfrsml8QLdm8k768k103DrfU-WfiG7NNRc4FXqQAyzutyKv0NM7omM8Qz4LWAZri_tIiPTlSrtNY_3O1-W9XaxIlfH9GAZKRnWbyfo1Tjz8BS","width":1500}],"place_id":"ChIJC9huNkMLkkYRWVw7w4WU_iw","plus_code":{"compound_code":"5WHF+QG Helsinki","global_code":"9GG65WHF+QG"},"rating":4.6,"reference":"ChIJC9huNkMLkkYRWVw7w4WU_iw","types":["restaurant","food","point_of_interest","establishment"],"user_ratings_total":102},{"business_status":"OPERATIONAL","formatted_address":"Fredrikinkatu 37, 00120 Helsinki, Finland","geometry":{"location":{"lat":60.16402039999999,"lng":24.9376614},"viewport":{"northeast":{"lat":60.16534977989272,"lng":24.93894967989272},"southwest":{"lat":60.16265012010728,"lng":24.93625002010728}}},"icon":"https://maps.gstatic.com/mapfiles/place_api/icons/v1/png_71/restaurant-71.png","icon_background_color":"#FF9E67","icon_mask_base_uri":"https://maps.gstatic.com/mapfiles/place_api/icons/v2/restaurant_pinlet","name":"Ravintola Skörd","opening_hours":{"open_now":true},"photos":[{"height":4192,"html_attributions":["<a href=\"https://maps.google.com/maps/contrib/109702418926349916160\">A Google User</a>"],"photo_reference":"Aaw_FcL9KAutSbCIwYr05SBYtrtvu7mcjZuLeSfPLFYd_OUxxSVV_cXPUEFCHGa2fstYIzhMuz8iTvOPYMcEENbn6G04z78nIYulHJlECI6ORzVvaLYfF0L0u68aYWRp_ue-D3ik_a_11Z3gy9pr0BrGVvF_9IuHVR86qpo7_5hyF0Whd2vR","width":2794}],"place_id":"ChIJIws67mkLkkYRMm_rSUcEY-s","plus_code":{"compound_code":"5W7Q+J3 Helsinki","global_code":"9GG65W7Q+J3"},"rating":4.8,"reference":"ChIJIws67mkLkkYRMm_rSUcEY-s","types":["restaurant","food","point_of_interest","establishment"],"user_ratings_total":186},{"business_status":"OPERATIONAL","formatted_address":"Bulevardi 26, 00120 Helsinki, Finland","geometry":{"location":{"lat":60.16393230000001,"lng":24.9362726},"viewport":{"northeast":{"lat":60.16530517989271,"lng":24.93765232989272},"southwest":{"lat":60.16260552010727,"lng":24.93495267010728}}},"icon":"https://maps.gstatic.com/mapfiles/place_api/icons/v1/png_71/restaurant-71.png","icon_background_color":"#FF9E67","icon_mask_base_uri":"https://maps.gstatic.com/mapfiles/place_api/icons/v2/restaurant_pinlet","name":"Ravintola Bröd Punavuori","opening_hours":{"open_now":true},"photos":[{"height":2268,"html_attributions":["<a href=\"https://maps.google.com/maps/contrib/103278502601689360906\">Janne Nieminen</a>"],"photo_reference":"Aaw_FcLG9Y2ZVBry7-nxcSQU1GYdyDPOgJ5we_WaE7XTOWycApOZj-HN0KHJ6R3qT_6hAPVpd6mjCEmeYlGplotTI7IFKrKsS2in5MEPztc7j5PH1Hf7xw1D_wly5UvbfGy08xj0mzWV4GNXqTF0n33Rs3a9DY2qDoT10lIs6C0xH7Sg8s1P","width":4032}],"place_id":"ChIJ94JTaMoLkkYRe0WWJfvQcZs","plus_code":{"compound_code":"5W7P+HG Helsinki","global_code":"9GG65W7P+HG"},"price_level":2,"rating":4,"reference":"ChIJ94JTaMoLkkYRe0WWJfvQcZs","types":["restaurant","food","point_of_interest","establishment"],"user_ratings_total":75},{"business_status":"OPERATIONAL","formatted_address":"Kapteeninkatu 11, 00140 Helsinki, Finland","geometry":{"location":{"lat":60.1587358,"lng":24.9465112},"viewport":{"northeast":{"lat":60.16010397989271,"lng":24.94775107989272},"southwest":{"lat":60.15740432010727,"lng":24.94505142010728}}},"icon":"https://maps.gstatic.com/mapfiles/place_api/icons/v1/png_71/restaurant-71.png","icon_background_color":"#FF9E67","icon_mask_base_uri":"https://maps.gstatic.com/mapfiles/place_api/icons/v2/restaurant_pinlet","name":"Restaurant Sea Horse","opening_hours":{"open_now":true},"photos":[{"height":1270,"html_attributions":["<a href=\"https://maps.google.com/maps/contrib/115816461045564593619\">A Google User</a>"],"photo_reference":"Aaw_FcL87RswdOean1kBqI48wNfy1KsygbdOJ1Aaet93doHYFAM3pjdihepx_xP9hLNLlB689QC5qAgC-EjqFJP2G4lnH5tDZo4hXVtamKkWYAYlf3w4nZVHEgiC36e05OMfq_G0hXF4JU-_cF80L3mfvFU7QFfWUJqh-KjCpLZxI1Vux7lG","width":2048}],"place_id":"ChIJtQpbILgLkkYR_Q8zrTMdT-w","plus_code":{"compound_code":"5W5W+FJ Helsinki","global_code":"9GG65W5W+FJ"},"price_level":2,"rating":4.3,"reference":"ChIJtQpbILgLkkYR_Q8zrTMdT-w","types":["restaurant","food","point_of_interest","establishment"],"user_ratings_total":1289},{"business_status":"OPERATIONAL","formatted_address":"Mikonkatu 4, 00100 Helsinki, Finland","geometry":{"location":{"lat":60.16845799999999,"lng":24.9454374},"viewport":{"northeast":{"lat":60.16948962989271,"lng":24.94686137989272},"southwest":{"lat":60.16678997010727,"lng":24.94416172010728}}},"icon":"https://maps.gstatic.com/mapfiles/place_api/icons/v1/png_71/restaurant-71.png","icon_background_color":"#FF9E67","icon_mask_base_uri":"https://maps.gstatic.com/mapfiles/place_api/icons/v2/restaurant_pinlet","name":"Restaurant VENN Helsinki","opening_hours":{"open_now":true},"photos":[{"height":1520,"html_attributions":["<a href=\"https://maps.google.com/maps/contrib/117565391282482445166\">James Lindsay</a>"],"photo_reference":"Aaw_FcIs9QpHh35rKy_an7vfbKwRbULN3Rt9qqRCIwKGg38OLKj1AlG8cCsskLi5w-Pl0EfMx-pPD9W95gdbyJGe3En4DEEbRO3pfC74XN31tPv-k0Vwdjx3EdeEiUAgR-_r7Z9bzw5zzo5MceXBlA5CwTDzxfc82xm0pm_qI8Yn0SIjqBOf","width":2688}],"place_id":"ChIJQ0fKH8wLkkYR7WxU_5t8UkM","plus_code":{"compound_code":"5W9W+95 Helsinki","global_code":"9GG65W9W+95"},"price_level":2,"rating":3.9,"reference":"ChIJQ0fKH8wLkkYR7WxU_5t8UkM","types":["restaurant","food","point_of_interest","establishment"],"user_ratings_total":507},{"business_status":"OPERATIONAL","formatted_address":"Erottajankatu 4, 00120 Helsinki, Finland","geometry":{"location":{"lat":60.16601199999999,"lng":24.9434258},"viewport":{"northeast":{"lat":60.16734792989273,"lng":24.94487107989272},"southwest":{"lat":60.16464827010729,"lng":24.94217142010728}}},"icon":"https://maps.gstatic.com/mapfiles/place_api/icons/v1/png_71/restaurant-71.png","icon_background_color":"#FF9E67","icon_mask_base_uri":"https://maps.gstatic.com/mapfiles/place_api/icons/v2/restaurant_pinlet","name":"Restaurant Lily Lee","opening_hours":{"open_now":true},"photos":[{"height":3000,"html_attributions":["<a href=\"https://maps.google.com/maps/contrib/111207219685635312190\">antti kornio</a>"],"photo_reference":"Aaw_FcKqocV8jvy0zc98fa_Rzc3f4VdGVgyfLzcPPNAXNW7KSQ-GomyX7nyPUUWLW4iWWhNoKIKgXCcCSh371s6jTcjWfvFSoUwwvvaug2SB4d-IfxZfKPbdbrAYYBMGcrCafvOP6ESsaI76rRoRMVWVC_rmtLCtEUXcQ7lqKxhRxyx0-aFQ","width":4000}],"place_id":"ChIJfbQ35_ILkkYRlJj8y89lWHA","plus_code":{"compound_code":"5W8V+C9 Helsinki","global_code":"9GG65W8V+C9"},"price_level":4,"rating":4.3,"reference":"ChIJfbQ35_ILkkYRlJj8y89lWHA","types":["restaurant","food","point_of_interest","establishment"],"user_ratings_total":285},{"business_status":"OPERATIONAL","formatted_address":"Bulevardi 12, 00120 Helsinki, Finland","geometry":{"location":{"lat":60.1653357,"lng":24.9403286},"viewport":{"northeast":{"lat":60.16673322989271,"lng":24.94161272989272},"southwest":{"lat":60.16403357010726,"lng":24.93891307010728}}},"icon":"https://maps.gstatic.com/mapfiles/place_api/icons/v1/png_71/restaurant-71.png","icon_background_color":"#FF9E67","icon_mask_base_uri":"https://maps.gstatic.com/mapfiles/place_api/icons/v2/restaurant_pinlet","name":"Restaurant Pamela","opening_hours":{"open_now":true},"photos":[{"height":3024,"html_attributions":["<a href=\"https://maps.google.com/maps/contrib/105721605781877770458\">Iiro Huikko</a>"],"photo_reference":"Aaw_FcLldOyHKJ6KcoiFI2WXlwjU2oRxSExKshg_hvxTX29mzsIqHIibxvmSjvY6gXf9uSaDI3qgqZTuP37bc9CgSLlxvbeBOjmxtjx5YyCJkJzf5JDBDY6nAySMKLOMtjzal5-OSmYZIZZc0jyrCntoOZxiszn6fiMm1BQMevjpXBw4ge-u","width":4032}],"place_id":"ChIJ2W2_ykgLkkYRmgnNA1rYlkQ","plus_code":{"compound_code":"5W8R+44 Helsinki","global_code":"9GG65W8R+44"},"price_level":2,"rating":3.9,"reference":"ChIJ2W2_ykgLkkYRmgnNA1rYlkQ","types":["restaurant","food","point_of_interest","establishment"],"user_ratings_total":244},{"business_status":"OPERATIONAL","formatted_address":"Korkeavuorenkatu 27, 00130 Helsinki, Finland","geometry":{"location":{"lat":60.163868,"lng":24.9463511},"viewport":{"northeast":{"lat":60.16522237989271,"lng":24.94758902989272},"southwest":{"lat":60.16252272010727,"lng":24.94488937010728}}},"icon":"https://maps.gstatic.com/mapfiles/place_api/icons/v1/png_71/restaurant-71.png","icon_background_color":"#FF9E67","icon_mask_base_uri":"https://maps.gstatic.com/mapfiles/place_api/icons/v2/restaurant_pinlet","name":"Restaurant Magu","opening_hours":{"open_now":true},"photos":[{"height":2977,"html_attributions":["<a href=\"https://maps.google.com/maps/contrib/112751111072820054425\">Anna-Mari Mönkkönen</a>"],"photo_reference":"Aaw_FcLkwgu5nYAvv3zTuiFtLvU_ydQvteLvQR9w34vVfnhiohxzFRwN3sX_COJ48ZO0Hn3kCWoCJajjXaOXson_Q8VYTWiqYc5zUd4iV_wUr4brWyUbNk1M-QZAOlaVnLxh93ja8tBNE8PqdT6xsCXCxkgWH8yiz3o5s85IJu2aAALQ40d4","width":3280}],"place_id":"ChIJIWMXDOUJkkYRsdTraGo-lLg","plus_code":{"compound_code":"5W7W+GG Helsinki","global_code":"9GG65W7W+GG"},"price_level":2,"rating":4.6,"reference":"ChIJIWMXDOUJkkYRsdTraGo-lLg","types":["restaurant","food","point_of_interest","establishment"],"user_ratings_total":329},{"business_status":"CLOSED_TEMPORARILY","formatted_address":"Mannerheimintie 56, 00260 Helsinki, Finland","geometry":{"location":{"lat":60.18131439999999,"lng":24.9272464},"viewport":{"northeast":{"lat":60.18275597989272,"lng":24.92841502989272},"southwest":{"lat":60.18005632010727,"lng":24.92571537010728}}},"icon":"https://maps.gstatic.com/mapfiles/place_api/icons/v1/png_71/restaurant-71.png","icon_background_color":"#FF9E67","icon_mask_base_uri":"https://maps.gstatic.com/mapfiles/place_api/icons/v2/restaurant_pinlet","name":"Ravintola Carelia","permanently_closed":true,"photos":[{"height":3648,"html_attributions":["<a href=\"https://maps.google.com/maps/contrib/104444237348548290893\">Ravintola Carelia</a>"],"photo_reference":"Aaw_FcLiivgvjelJljjsaNc1LF_4h1dwRGAuuqzEqwnPLEsqIqehg5boDpEKpQIJaK9NHaU8gnQxlvcju41VpUAgGkTA4e3yRMh0lEj6Kf8FsM3f_XmlsmnS49Wn46AY-qGK3hrTRyIYruu1ni1ZXRg1pgKauVJKrCxEyWXzp0ZeSk-uD7gU","width":5472}],"place_id":"ChIJxwMJPi8KkkYRXgcm1EE3GR8","plus_code":{"compound_code":"5WJG+GV Helsinki","global_code":"9GG65WJG+GV"},"price_level":3,"rating":4.3,"reference":"ChIJxwMJPi8KkkYRXgcm1EE3GR8","types":["bar","restaurant","food","point_of_interest","establishment"],"user_ratings_total":479},{"business_status":"CLOSED_TEMPORARILY","formatted_address":"Eerikinkatu 44, 00180 Helsinki, Finland","geometry":{"location":{"lat":60.1643754,"lng":24.9277705},"viewport":{"northeast":{"lat":60.16573552989271,"lng":24.92891582989272},"southwest":{"lat":60.16303587010727,"lng":24.92621617010728}}},"icon":"https://maps.gstatic.com/mapfiles/place_api/icons/v1/png_71/restaurant-71.png","icon_background_color":"#FF9E67","icon_mask_base_uri":"https://maps.gstatic.com/mapfiles/place_api/icons/v2/restaurant_pinlet","name":"Restaurant Goose Pastabar","permanently_closed":true,"photos":[{"height":3024,"html_attributions":["<a href=\"https://maps.google.com/maps/contrib/112106194731469526562\">Samuli Makkonen</a>"],"photo_reference":"Aaw_FcKqhvXM-frDTg7dZ3g3syq8l3_9dL6YIZwwjf6SQyXeIGt36om6vogivYwP5AzP9v48uGYYqNthDDWlo0Z0G8mPYL71zhzkTRSBtsH3Z35LI3VswNleUGomjE4evIG7u24VJR8kc-ZE6xseLNQ-rffX8rYa2zjaEhkhTkFvSs_k695U","width":4032}],"place_id":"ChIJZSKGvQULkkYR118o1IlO_xw","plus_code":{"compound_code":"5W7H+Q4 Helsinki","global_code":"9GG65W7H+Q4"},"price_level":2,"rating":4.6,"reference":"ChIJZSKGvQULkkYR118o1IlO_xw","types":["restaurant","food","point_of_interest","establishment"],"user_ratings_total":391},{"business_status":"OPERATIONAL","formatted_address":"Bulevardi 4, 00120 Helsinki, Finland","geometry":{"location":{"lat":60.1661592,"lng":24.9426686},"viewport":{"northeast":{"lat":60.16762177989271,"lng":24.94441077989272},"southwest":{"lat":60.16492212010727,"lng":24.94171112010727}}},"icon":"https://maps.gstatic.com/mapfiles/place_api/icons/v1/png_71/restaurant-71.png","icon_background_color":"#FF9E67","icon_mask_base_uri":"https://maps.gstatic.com/mapfiles/place_api/icons/v2/restaurant_pinlet","name":"Restaurant Toscanini","opening_hours":{"open_now":true},"photos":[{"height":6936,"html_attributions":["<a href=\"https://maps.google.com/maps/contrib/103470809427970133478\">Ville Pekkola</a>"],"photo_reference":"Aaw_FcLhCZnrz6XbhLtyEF1hifq6pPRjrorgGhXS76C3UU__WvOlEviTpeoWr_IJTKBdOfZjAmSWiXuYhRULr7FP6gUPmCnffCk7ezjmzrrQAZtZ2Jd4TjSulYhkGeGWkWvaDPGIMOQuPmvRfHbhDPrfJyq7qvw0wM89F-8dKEO4RtNrUlMd","width":9248}],"place_id":"ChIJFdphX8kLkkYRy3ODYQu6-wE","plus_code":{"compound_code":"5W8V+F3 Helsinki","global_code":"9GG65W8V+F3"},"price_level":2,"rating":4.2,"reference":"ChIJFdphX8kLkkYRy3ODYQu6-wE","types":["restaurant","food","point_of_interest","establishment"],"user_ratings_total":562},{"business_status":"OPERATIONAL","formatted_address":"Pieni Roobertinkatu 3, 00130 Helsinki, Finland","geometry":{"location":{"lat":60.16435549999999,"lng":24.9477203},"viewport":{"northeast":{"lat":60.16565287989273,"lng":24.94907667989272},"southwest":{"lat":60.16295322010728,"lng":24.94637702010728}}},"icon":"https://maps.gstatic.com/mapfiles/place_api/icons/v1/png_71/restaurant-71.png","icon_background_color":"#FF9E67","icon_mask_base_uri":"https://maps.gstatic.com/mapfiles/place_api/icons/v2/restaurant_pinlet","name":"Restaurant Krog Roba","opening_hours":{"open_now":true},"photos":[{"height":2225,"html_attributions":["<a href=\"https://maps.google.com/maps/contrib/104102459108829021312\">A Google User</a>"],"photo_reference":"Aaw_FcK2WL_LlYJxEKGYZMOc3IH2io6hIZptM0hdeWBbpCVZPtsbT3t88OSGonMsp2oQHetHJId7GXH4GaV1n9VJrmccPHEIqsOsEK0RIQPpALJ_g7twPR5kehwn3VEoEmLQBS83TWsakZEjabO0B56JDj8RSx_-o0B-LPxZGx7G7Ke4HvYj","width":3425}],"place_id":"ChIJX9km48gLkkYRzl7oZ0mDoc8","plus_code":{"compound_code":"5W7X+P3 Helsinki","global_code":"9GG65W7X+P3"},"price_level":2,"rating":4.2,"reference":"ChIJX9km48gLkkYRzl7oZ0mDoc8","types":["restaurant","food","point_of_interest","establishment"],"user_ratings_total":424},{"business_status":"OPERATIONAL","formatted_address":"Keskuskatu 3, 00100 Helsinki, Finland","geometry":{"location":{"lat":60.168412,"lng":24.9432229},"viewport":{"northeast":{"lat":60.16997497989271,"lng":24.94443892989272},"southwest":{"lat":60.16727532010727,"lng":24.94173927010728}}},"icon":"https://maps.gstatic.com/mapfiles/place_api/icons/v1/png_71/restaurant-71.png","icon_background_color":"#FF9E67","icon_mask_base_uri":"https://maps.gstatic.com/mapfiles/place_api/icons/v2/restaurant_pinlet","name":"Restaurant La Famiglia","opening_hours":{"open_now":true},"photos":[{"height":3000,"html_attributions":["<a href=\"https://maps.google.com/maps/contrib/113118541111248132275\">Luis Bonet</a>"],"photo_reference":"Aaw_FcKyrUQMklBbkWOVtelJqh7gRfKYaH-ub97ad_UPP5uHvmKXC3_WMSkEmwGQWcFCr_PQKb9-ATbtIGipGCafuxuRcLqMidU1EAVkucCURro811uTsJeEInJUVVz5n-w-Sk0HEpX3N2oz9DQvtVS8rl3Cjcnaa5yJZ4__hCtD2qH5KTXL","width":4000}],"place_id":"ChIJr4OpFcwLkkYRUZjaQ4K6CJ0","plus_code":{"compound_code":"5W9V+97 Helsinki","global_code":"9GG65W9V+97"},"price_level":2,"rating":3.7,"reference":"ChIJr4OpFcwLkkYRUZjaQ4K6CJ0","types":["restaurant","food","point_of_interest","establishment"],"user_ratings_total":2057},{"business_status":"OPERATIONAL","formatted_address":"Hämeentie 11, 00530 Helsinki, Finland","geometry":{"location":{"lat":60.18321830000001,"lng":24.9589328},"viewport":{"northeast":{"lat":60.18449817989273,"lng":24.96018807989272},"southwest":{"lat":60.18179852010729,"lng":24.95748842010728}}},"icon":"https://maps.gstatic.com/mapfiles/place_api/icons/v1/png_71/restaurant-71.png","icon_background_color":"#FF9E67","icon_mask_base_uri":"https://maps.gstatic.com/mapfiles/place_api/icons/v2/restaurant_pinlet","name":"Ravintola Tanner","opening_hours":{"open_now":true},"photos":[{"height":4032,"html_attributions":["<a href=\"https://maps.google.com/maps/contrib/101160675566106820051\">eerohei</a>"],"photo_reference":"Aaw_FcIlpZ733VBocADuKYrxE__Ama1WtB29oWr1CukvSYP3kJ7blyem0WDFAHll7nRoUehwV6IfvjL8ewQZY8D5z7FSZV6VQb0ZKz49q67cyheGSvgU2Cc0T8uoaYsZ2Q7CB4pim0Ydo-kGiHR-x6fJUmPgdgMQnVx2j5sXF_1nNab4YjEW","width":3024}],"place_id":"ChIJv4nsihsJkkYRNepBg9wxPQo","plus_code":{"compound_code":"5XM5+7H Helsinki","global_code":"9GG65XM5+7H"},"price_level":2,"rating":4.1,"reference":"ChIJv4nsihsJkkYRNepBg9wxPQo","types":["restaurant","food","point_of_interest","establishment"],"user_ratings_total":511},{"business_status":"OPERATIONAL","formatted_address":"Mikonkatu 9, 00100 Helsinki, Finland","geometry":{"location":{"lat":60.1699412,"lng":24.9455812},"viewport":{"northeast":{"lat":60.17128777989272,"lng":24.94683972989272},"southwest":{"lat":60.16858812010727,"lng":24.94414007010727}}},"icon":"https://maps.gstatic.com/mapfiles/place_api/icons/v1/png_71/restaurant-71.png","icon_background_color":"#FF9E67","icon_mask_base_uri":"https://maps.gstatic.com/mapfiles/place_api/icons/v2/restaurant_pinlet","name":"Restaurant Penélope","opening_hours":{"open_now":true},"photos":[{"height":4000,"html_attributions":["<a href=\"https://maps.google.com/maps/contrib/112812790516916319041\">Sari Rissanen</a>"],"photo_reference":"Aaw_FcK1xNOnbgVuRgeCEl5L18qxVeJ3CkbiBz3y_Xdjzra9Jk-A-qumYw93Z0FgwtZ05o8Rj8Ga8RypjWxx9TZqsB0y88863IvuYLwHfnojdQIwmLOhXDprjvQaZP3UH2fDDiBboCRYTEnmcPg82oZGiq7G2zIEeUwMJ0RMTDxSJDF4l2vO","width":3000}],"place_id":"ChIJB3auLAgLkkYRgHgGmBbQDLU","plus_code":{"compound_code":"5W9W+X6 Helsinki","global_code":"9GG65W9W+X6"},"price_level":3,"rating":3.9,"reference":"ChIJB3auLAgLkkYRgHgGmBbQDLU","types":["restaurant","food","point_of_interest","establishment"],"user_ratings_total":381},{"business_status":"CLOSED_TEMPORARILY","formatted_address":"Kalevankatu 3, 00100 Helsinki, Finland","geometry":{"location":{"lat":60.1680026,"lng":24.9396502},"viewport":{"northeast":{"lat":60.16938702989273,"lng":24.94127392989272},"southwest":{"lat":60.16668737010728,"lng":24.93857427010727}}},"icon":"https://maps.gstatic.com/mapfiles/place_api/icons/v1/png_71/restaurant-71.png","icon_background_color":"#FF9E67","icon_mask_base_uri":"https://maps.gstatic.com/mapfiles/place_api/icons/v2/restaurant_pinlet","name":"Kosmos","permanently_closed":true,"photos":[{"height":3024,"html_attributions":["<a href=\"https://maps.google.com/maps/contrib/118346327177431654733\">Miro Dimitrov</a>"],"photo_reference":"Aaw_FcKTWYLLgghdT4ym52WYXqRuazvyWGfT-eKqCInzYT_MctgtM20hnfWwlt5hPivGUQ2KBYHT_PFIBvpzxbBPpUGXoRSAgMgS9BnOaqWubnAza6GfzhVwbRkoMdRFKXvz3sqvcxe1GIRTyuSO1oTtgsRbEuqEVBOu_jXHdcXdVp8aE6f1","width":4032}],"place_id":"ChIJpTzteMwLkkYRXQQcpn4cIFA","plus_code":{"compound_code":"5W9Q+6V Helsinki","global_code":"9GG65W9Q+6V"},"price_level":3,"rating":4.3,"reference":"ChIJpTzteMwLkkYRXQQcpn4cIFA","types":["restaurant","food","point_of_interest","establishment"],"user_ratings_total":605},{"business_status":"CLOSED_TEMPORARILY","formatted_address":"Urho Kekkosen katu 4, 00100 Helsinki, Finland","geometry":{"location":{"lat":60.16853030000001,"lng":24.9329349},"viewport":{"northeast":{"lat":60.16992862989272,"lng":24.93422527989272},"southwest":{"lat":60.16722897010727,"lng":24.93152562010728}}},"icon":"https://maps.gstatic.com/mapfiles/place_api/icons/v1/png_71/restaurant-71.png","icon_background_color":"#FF9E67","icon_mask_base_uri":"https://maps.gstatic.com/mapfiles/place_api/icons/v2/restaurant_pinlet","name":"Ravintola Ilves","permanently_closed":true,"photos":[{"height":3024,"html_attributions":["<a href=\"https://maps.google.com/maps/contrib/117629978386826589062\">Juhani Lehtonen</a>"],"photo_reference":"Aaw_FcLgFs253j-mLId9rA7LIlFY_aLGkN5-fc3iARTigdkl_SqpQ-nGpShT5jnUla1t1fPUZplptDQGvpEuomxgeL2g0KqHkI7wXguWCni9r-OxNmfn0EKvSQ4wwO0F3SYIixb1HV7QKVfcjOoGGcS0bOMgFJsAAtdOfBwx-dzbnluVlGVy","width":4032}],"place_id":"ChIJa_FPrTQKkkYRHIkkCTRHOG8","plus_code":{"compound_code":"5W9M+C5 Helsinki","global_code":"9GG65W9M+C5"},"price_level":2,"rating":4.3,"reference":"ChIJa_FPrTQKkkYRHIkkCTRHOG8","types":["restaurant","food","point_of_interest","establishment"],"user_ratings_total":248},{"business_status":"OPERATIONAL","formatted_address":"Uudenmaankatu 9-11, 00120 Helsinki, Finland","geometry":{"location":{"lat":60.1648185,"lng":24.9414798},"viewport":{"northeast":{"lat":60.16613492989272,"lng":24.94287717989272},"southwest":{"lat":60.16343527010728,"lng":24.94017752010728}}},"icon":"https://maps.gstatic.com/mapfiles/place_api/icons/v1/png_71/restaurant-71.png","icon_background_color":"#FF9E67","icon_mask_base_uri":"https://maps.gstatic.com/mapfiles/place_api/icons/v2/restaurant_pinlet","name":"Restaurant Demo","opening_hours":{"open_now":false},"photos":[{"height":1374,"html_attributions":["<a href=\"https://maps.google.com/maps/contrib/100671681116170302683\">Ravintola Demo</a>"],"photo_reference":"Aaw_FcIkCsITn-ZBkFhEFN9XClxOkuNOgbOB8oDrqay5s-CtGROM_xTGGJxW0zqVNJeMQUGyce5qB7PHcFrvzu18QVChqiv4nfW5AcTzDverJs0kdoNmP7A7ZsuuXX8a8gfvH7Orp7H3DpgeHnG2btG9_EqcdeF2Ynp3j0-rg_DZXN5U5tbP","width":2048}],"place_id":"ChIJ-cwofMkLkkYRBipdZNu328c","plus_code":{"compound_code":"5W7R+WH Helsinki","global_code":"9GG65W7R+WH"},"price_level":4,"rating":4.6,"reference":"ChIJ-cwofMkLkkYRBipdZNu328c","types":["restaurant","food","point_of_interest","establishment"],"user_ratings_total":308},{"business_status":"OPERATIONAL","formatted_address":"Eteläranta 16, 00130 Helsinki, Finland","geometry":{"location":{"lat":60.16655300000001,"lng":24.9521811},"viewport":{"northeast":{"lat":60.16786792989273,"lng":24.95368437989272},"southwest":{"lat":60.16516827010729,"lng":24.95098472010728}}},"icon":"https://maps.gstatic.com/mapfiles/place_api/icons/v1/png_71/restaurant-71.png","icon_background_color":"#FF9E67","icon_mask_base_uri":"https://maps.gstatic.com/mapfiles/place_api/icons/v2/restaurant_pinlet","name":"Restaurant Fiasco? by Ultima","opening_hours":{"open_now":true},"photos":[{"height":3000,"html_attributions":["<a href=\"https://maps.google.com/maps/contrib/115686425809658498098\">tony aessii</a>"],"photo_reference":"Aaw_FcLJw82dOS4nRlTHp65x6nkoctL-Jd11V616z0ixI7_zkAlmmmao64hHNnpZFsqsuuXyOi2OBcHR4LWXqmnzThTHu7F6ewH1SOF_z3kRLtGZy_C6vVWKQFoZrPiXs9GzsZIwTp5bM9sAQ7bRue3huO46fmXbzHOjUb9vZcG7LEzazJcb","width":4000}],"place_id":"ChIJO6MCR88LkkYRcoButxzXocY","plus_code":{"compound_code":"5X82+JV Helsinki","global_code":"9GG65X82+JV"},"rating":4.4,"reference":"ChIJO6MCR88LkkYRcoButxzXocY","types":["restaurant","food","point_of_interest","establishment"],"user_ratings_total":301},{"business_status":"OPERATIONAL","formatted_address":"Aleksanterinkatu 22, 00170 Helsinki, Finland","geometry":{"location":{"lat":60.1689521,"lng":24.9527835},"viewport":{"northeast":{"lat":60.17035957989272,"lng":24.95412677989272},"southwest":{"lat":60.16765992010727,"lng":24.95142712010728}}},"icon":"https://maps.gstatic.com/mapfiles/place_api/icons/v1/png_71/restaurant-71.png","icon_background_color":"#FF9E67","icon_mask_base_uri":"https://maps.gstatic.com/mapfiles/place_api/icons/v2/restaurant_pinlet","name":"Restaurant Savotta","opening_hours":{"open_now":true},"photos":[{"height":666,"html_attributions":["<a href=\"https://maps.google.com/maps/contrib/117447408640906427404\">Savotta</a>"],"photo_reference":"Aaw_FcLzxlUhAGmk23AzY5hyrLxxrlQinoyWHyhHFRbtXg84X5XStEd_3OZom8khw-hZctkBUeorwoaXTPOgD-jq6g7eacCIRdsWZx5YYpn3eOdVLzqVwUK73xFQs8ii6euquGlJ_KdNeIjqk2L3mZfAhsPhE2uYszpT3FvimYqgxdLwTPxF","width":1000}],"place_id":"ChIJlwjdrs8LkkYR3SPwdY1bjIo","plus_code":{"compound_code":"5X93+H4 Helsinki","global_code":"9GG65X93+H4"},"price_level":3,"rating":4.4,"reference":"ChIJlwjdrs8LkkYR3SPwdY1bjIo","types":["restaurant","food","point_of_interest","establishment"],"user_ratings_total":1231},{"business_status":"OPERATIONAL","formatted_address":"Hämeentie 13 B, 00530 Helsinki, Finland","geometry":{"location":{"lat":60.1841812,"lng":24.9602439},"viewport":{"northeast":{"lat":60.18559347989272,"lng":24.96143367989272},"southwest":{"lat":60.18289382010728,"lng":24.95873402010728}}},"icon":"https://maps.gstatic.com/mapfiles/place_api/icons/v1/png_71/restaurant-71.png","icon_background_color":"#FF9E67","icon_mask_base_uri":"https://maps.gstatic.com/mapfiles/place_api/icons/v2/restaurant_pinlet","name":"Restaurant Siltanen","opening_hours":{"open_now":true},"photos":[{"height":4144,"html_attributions":["<a href=\"https://maps.google.com/maps/contrib/103155401141262055263\">A Google User</a>"],"photo_reference":"Aaw_FcIAtrVxjCu6bMyIIU8ZFB80DOkMmaFbPV9DMwwVdeyTxZsngx17k9otvOkMbZR1zaiHPcLyOwc83c3QcQstoyoIAXRRW3zy3ovYrPme7MMgm2DsfApSUi6lSLZ1jcVuTaYEYzard6teZZOz-Zq0vFA_-G1zwB3hT0x-ZOZYcMzbcshA","width":5520}],"place_id":"ChIJaa2scn4JkkYRzvncDy61-9k","plus_code":{"compound_code":"5XM6+M4 Helsinki","global_code":"9GG65XM6+M4"},"price_level":2,"rating":4,"reference":"ChIJaa2scn4JkkYRzvncDy61-9k","types":["restaurant","food","point_of_interest","establishment"],"user_ratings_total":659},{"business_status":"OPERATIONAL","formatted_address":"Korkeavuorenkatu 45, 00130 Helsinki, Finland","geometry":{"location":{"lat":60.1665338,"lng":24.9460599},"viewport":{"northeast":{"lat":60.16788062989272,"lng":24.94729477989272},"southwest":{"lat":60.16518097010728,"lng":24.94459512010728}}},"icon":"https://maps.gstatic.com/mapfiles/place_api/icons/v1/png_71/restaurant-71.png","icon_background_color":"#FF9E67","icon_mask_base_uri":"https://maps.gstatic.com/mapfiles/place_api/icons/v2/restaurant_pinlet","name":"Ravintola Paisano","opening_hours":{"open_now":false},"photos":[{"height":5348,"html_attributions":["<a href=\"https://maps.google.com/maps/contrib/105339242643892929375\">A Google User</a>"],"photo_reference":"Aaw_FcLuciZM4Qot4V-MhiSq_exC9VQhv6s30BDQ1rs1Df-ohuFwQ8AjqsA1PaUmIcXwecQJfoU2LXPtFZ9O3QgCgKRHyhysygIYI0fOx2eycu32JUn4IjTMRLbteHhRsDttJo2yGlabNPUAcTUHlPvdFS5fSWEg9ibRQJz1MsON25JGOZef","width":8022}],"place_id":"ChIJDfisd7ULkkYRzaiopvDGjOc","plus_code":{"compound_code":"5W8W+JC Helsinki","global_code":"9GG65W8W+JC"},"price_level":2,"rating":4.3,"reference":"ChIJDfisd7ULkkYRzaiopvDGjOc","types":["restaurant","food","point_of_interest","establishment"],"user_ratings_total":363},{"business_status":"OPERATIONAL","formatted_address":"Finland, Bulevardi 15, 00120 Helsinki, Finland","geometry":{"location":{"lat":60.1641836,"lng":24.9360566},"viewport":{"northeast":{"lat":60.16547047989273,"lng":24.93750127989273},"southwest":{"lat":60.16277082010728,"lng":24.93480162010728}}},"icon":"https://maps.gstatic.com/mapfiles/place_api/icons/v1/png_71/restaurant-71.png","icon_background_color":"#FF9E67","icon_mask_base_uri":"https://maps.gstatic.com/mapfiles/place_api/icons/v2/restaurant_pinlet","name":"Restaurant Levant Bulevardi","opening_hours":{"open_now":true},"photos":[{"height":3072,"html_attributions":["<a href=\"https://maps.google.com/maps/contrib/106932141522433816361\">Stanislav Andreev</a>"],"photo_reference":"Aaw_FcK67sGC1Eyb2pGhasvEp-65Hfzs7obFXX0DnzEHYlXefGiOte2d5fvp_SxlczW2FStDHq_iMxqvJBBEooKiC1oiZc5UAt1BDoUAQscdPXXA-kSBnSuo6mSEJyaYkeDXlFXdR2Tq0STdC6n6nF05BiTD5v7zkbPcdjR6XzOIfkOFJL28","width":4080}],"place_id":"ChIJVcNOXcoLkkYRGJ9EuqaBUpU","plus_code":{"compound_code":"5W7P+MC Helsinki","global_code":"9GG65W7P+MC"},"price_level":1,"rating":4.6,"reference":"ChIJVcNOXcoLkkYRGJ9EuqaBUpU","types":["restaurant","food","point_of_interest","establishment"],"user_ratings_total":824},{"business_status":"OPERATIONAL","formatted_address":"Eteläinen Hesperiankatu 22, 00100 Helsinki, Finland","geometry":{"location":{"lat":60.17656900000001,"lng":24.922915},"viewport":{"northeast":{"lat":60.17796967989273,"lng":24.92421567989272},"southwest":{"lat":60.17527002010728,"lng":24.92151602010728}}},"icon":"https://maps.gstatic.com/mapfiles/place_api/icons/v1/png_71/restaurant-71.png","icon_background_color":"#FF9E67","icon_mask_base_uri":"https://maps.gstatic.com/mapfiles/place_api/icons/v2/restaurant_pinlet","name":"Restaurant Elite","opening_hours":{"open_now":true},"photos":[{"height":400,"html_attributions":["<a href=\"https://maps.google.com/maps/contrib/112119009231206691151\">A Google User</a>"],"photo_reference":"Aaw_FcLO4d65Vre_lSk5e4tItQrSI8_ICxWLlbS215BpAXRIprO5WO5WZhUd1RAar7-i6QBb38eUFXUtAebyPpKLNLCksP45eYvQKmQi_R5OXJenjGb6Od3XghxQI65Xcz4P7UYg9A_-L8JqzCC_mENcwHUXvrU_yxGSiA7kMgzD9vlLeyy-","width":600}],"place_id":"ChIJJcDVNjAKkkYRVAiBMq4jrUo","plus_code":{"compound_code":"5WGF+J5 Helsinki","global_code":"9GG65WGF+J5"},"price_level":3,"rating":4.4,"reference":"ChIJJcDVNjAKkkYRVAiBMq4jrUo","types":["restaurant","cafe","food","point_of_interest","establishment"],"user_ratings_total":1008},{"business_status":"OPERATIONAL","formatted_address":"Vilhonkatu 13, 00100 Helsinki, Finland","geometry":{"location":{"lat":60.1720869,"lng":24.9429452},"viewport":{"northeast":{"lat":60.17333372989272,"lng":24.94434462989272},"southwest":{"lat":60.17063407010728,"lng":24.94164497010728}}},"icon":"https://maps.gstatic.com/mapfiles/place_api/icons/v1/png_71/restaurant-71.png","icon_background_color":"#FF9E67","icon_mask_base_uri":"https://maps.gstatic.com/mapfiles/place_api/icons/v2/restaurant_pinlet","name":"Brasserie Grand","opening_hours":{"open_now":true},"photos":[{"height":4032,"html_attributions":["<a href=\"https://maps.google.com/maps/contrib/105177902174876429460\">A Google User</a>"],"photo_reference":"Aaw_FcLHTCoFX6DJ05PjMcrs2xkny3a7r8CW-S9PpsHnQdi77-2SnABaHBKSISlxvLPirE2Obc0g3sVPsVx93VfEYMXk1zgNsQc0RY0I4ZO4s2gAJLUHmWarrwlXK8RNmYpo84BbDm8YbHfH4QQ2xd_Cj3IyP-BgzM1FAE-NN8SjK_ECHsSO","width":3024}],"place_id":"ChIJ24ka_B8LkkYRl-MIvc0RprE","plus_code":{"compound_code":"5WCV+R5 Helsinki","global_code":"9GG65WCV+R5"},"rating":3.7,"reference":"ChIJ24ka_B8LkkYRl-MIvc0RprE","types":["restaurant","food","point_of_interest","establishment"],"user_ratings_total":11},{"business_status":"OPERATIONAL","formatted_address":"Fredrikinkatu 22, 00120 Helsinki, Finland","geometry":{"location":{"lat":60.1633002,"lng":24.93828},"viewport":{"northeast":{"lat":60.16467082989272,"lng":24.93969082989272},"southwest":{"lat":60.16197117010728,"lng":24.93699117010727}}},"icon":"https://maps.gstatic.com/mapfiles/place_api/icons/v1/png_71/restaurant-71.png","icon_background_color":"#FF9E67","icon_mask_base_uri":"https://maps.gstatic.com/mapfiles/place_api/icons/v2/restaurant_pinlet","name":"Ravintola Nolla","opening_hours":{"open_now":true},"photos":[{"height":3024,"html_attributions":["<a href=\"https://maps.google.com/maps/contrib/104913898193059604552\">Riitta-Liisa Yrjölä</a>"],"photo_reference":"Aaw_FcIKm8szFRKzsxTqPbVCOx8eCwBbXzbkwgQCBaRwpD5NeblXNTsOCsVE8AeIsuZ9r1QJeThvrA7DA9L_Q2zYyPd-sw60UlgOj6r1bgND3GIsRonHn0dnYW5QZBHMOF9b8-YXXmdWh-Eh6Ten9qy8-yqLY5yrLRXMvfEiGBA8Qz3k0LUp","width":4032}],"place_id":"ChIJMy0B7tALkkYRFxxwSiFlRBM","plus_code":{"compound_code":"5W7Q+88 Helsinki","global_code":"9GG65W7Q+88"},"price_level":3,"rating":4.7,"reference":"ChIJMy0B7tALkkYRFxxwSiFlRBM","types":["restaurant","food","point_of_interest","establishment"],"user_ratings_total":494},{"business_status":"OPERATIONAL","formatted_address":"Bulevardi 28, 00120 Helsinki, Finland","geometry":{"location":{"lat":60.1637774,"lng":24.9358485},"viewport":{"northeast":{"lat":60.16512992989271,"lng":24.93703542989272},"southwest":{"lat":60.16243027010727,"lng":24.93433577010728}}},"icon":"https://maps.gstatic.com/mapfiles/place_api/icons/v1/png_71/restaurant-71.png","icon_background_color":"#FF9E67","icon_mask_base_uri":"https://maps.gstatic.com/mapfiles/place_api/icons/v2/restaurant_pinlet","name":"Restaurant Kultá Kitchen & Bar","opening_hours":{"open_now":true},"photos":[{"height":6144,"html_attributions":["<a href=\"https://maps.google.com/maps/contrib/110929240553107640649\">kajtcu</a>"],"photo_reference":"Aaw_FcKeiqLfQyJYM7g3G7ehKxpS9QYp8eCj_OnhZ93GhAh9cQXvn4bb3vMlth2a3F2mdykwcln-qseGXwgZhVX92mnECyqleVabBFv28vhqnDs1dVfQWNE2uQ66P8_HQbHpyt2aFqX9_zAuaJ9ZHDRrnB_oPDx7Axcc9yhzApI4pCiA2zki","width":8192}],"place_id":"ChIJUU0Jy6ILkkYRTh5QWiIDzjU","plus_code":{"compound_code":"5W7P+G8 Helsinki","global_code":"9GG65W7P+G8"},"rating":4.7,"reference":"ChIJUU0Jy6ILkkYRTh5QWiIDzjU","types":["restaurant","food","point_of_interest","establishment"],"user_ratings_total":340},{"business_status":"OPERATIONAL","formatted_address":"Eteläranta 16, 00130 Helsinki, Finland","geometry":{"location":{"lat":60.1665039,"lng":24.9522988},"viewport":{"northeast":{"lat":60.16785107989271,"lng":24.95371932989272},"southwest":{"lat":60.16515142010726,"lng":24.95101967010728}}},"icon":"https://maps.gstatic.com/mapfiles/place_api/icons/v1/png_71/restaurant-71.png","icon_background_color":"#FF9E67","icon_mask_base_uri":"https://maps.gstatic.com/mapfiles/place_api/icons/v2/restaurant_pinlet","name":"Ravintola Sue Ellen","opening_hours":{"open_now":true},"photos":[{"height":3251,"html_attributions":["<a href=\"https://maps.google.com/maps/contrib/103425402018538071304\">A Google User</a>"],"photo_reference":"Aaw_FcLIDA0RNic7vPvFZKYuZEbFZSWwcot5u_E8KQ9bly-F69-juah680ro3vXKQKxRWjHpxvm6e4pBPdtz6hqEmQx0tDNTUY-7MfVAGOZGy4ZOt0NxgMFZ4Hvn59Twu1-DqwFaoCj-IZclIqDveTXwj4QYLLBVBJX86N_kvjjffZllz5Mn","width":4876}],"place_id":"ChIJO6MCR88LkkYR2Q3kjbeODBo","plus_code":{"compound_code":"5X82+JW Helsinki","global_code":"9GG65X82+JW"},"rating":4.3,"reference":"ChIJO6MCR88LkkYR2Q3kjbeODBo","types":["restaurant","food","point_of_interest","establishment"],"user_ratings_total":348},{"business_status":"OPERATIONAL","formatted_address":"Eerikinkatu 27, 00180 Helsinki, Finland","geometry":{"location":{"lat":60.16526409999999,"lng":24.9293042},"viewport":{"northeast":{"lat":60.16655612989273,"lng":24.93073802989272},"southwest":{"lat":60.16385647010728,"lng":24.92803837010728}}},"icon":"https://maps.gstatic.com/mapfiles/place_api/icons/v1/png_71/restaurant-71.png","icon_background_color":"#FF9E67","icon_mask_base_uri":"https://maps.gstatic.com/mapfiles/place_api/icons/v2/restaurant_pinlet","name":"Restaurant Pueblo Bar y Taqueria","opening_hours":{"open_now":true},"photos":[{"height":3024,"html_attributions":["<a href=\"https://maps.google.com/maps/contrib/118432843176414574248\">Jorma Mononen</a>"],"photo_reference":"Aaw_FcJ63WYACLLiOtxs9ut2mI6p28VRqWnkACUvWnG8qL-cRujdS_rpk-aS5pthU04Iyq2TlUO0-Sv1w0byGlXbeBiomSrb8BqLmyEd4NPJmhirTYv0uwfykiOHPeRXMLaKORM2edPmzDmzG8NerSipymSdDfLQhJVukENmbc739B3FTfj1","width":4032}],"place_id":"ChIJHxSuSzUKkkYRJKvNmkny4fQ","plus_code":{"compound_code":"5W8H+4P Helsinki","global_code":"9GG65W8H+4P"},"price_level":2,"rating":4.3,"reference":"ChIJHxSuSzUKkkYRJKvNmkny4fQ","types":["restaurant","food","point_of_interest","establishment"],"user_ratings_total":719},{"business_status":"OPERATIONAL","formatted_address":"Hämeentie 135 A, 00560 Helsinki, Finland","geometry":{"location":{"lat":60.2087188,"lng":24.976421},"viewport":{"northeast":{"lat":60.21017377989271,"lng":24.97731757989272},"southwest":{"lat":60.20747412010727,"lng":24.97461792010728}}},"icon":"https://maps.gstatic.com/mapfiles/place_api/icons/v1/png_71/restaurant-71.png","icon_background_color":"#FF9E67","icon_mask_base_uri":"https://maps.gstatic.com/mapfiles/place_api/icons/v2/restaurant_pinlet","name":"Food & Co Arabianranta","opening_hours":{"open_now":false},"photos":[{"height":2074,"html_attributions":["<a href=\"https://maps.google.com/maps/contrib/113159444032138282382\">Ilka Helo</a>"],"photo_reference":"Aaw_FcIdjyKw18zgSdwXd1ouaz2YwOZlyqT1ND6LrfPpZmB8wmgSvbE2YBMx0yCv_C9Qqs49aUYAEYpDkt4kAy2GWKsy3hZp1gF7Z-r-gJ2j5LGOyFh83-tkM6fJZcbV33F1G-W57EowdTxijF0d-sbtZogYv4x9hDjAuKjTUtT_HCKXv1Sa","width":4608}],"place_id":"ChIJEQkvhaAJkkYRgNfN3tTAn0M","plus_code":{"compound_code":"6X5G+FH Helsinki","global_code":"9GG66X5G+FH"},"price_level":1,"rating":3.6,"reference":"ChIJEQkvhaAJkkYRgNfN3tTAn0M","types":["restaurant","point_of_interest","food","establishment"],"user_ratings_total":48},{"business_status":"OPERATIONAL","formatted_address":"Kauppakeskus Arabia, Hämeentie 111, 00560 Helsinki, Finland","geometry":{"location":{"lat":60.2029339,"lng":24.9677844},"viewport":{"northeast":{"lat":60.20449497989272,"lng":24.9702447},"southwest":{"lat":60.20179532010727,"lng":24.9669643}}},"icon":"https://maps.gstatic.com/mapfiles/place_api/icons/v1/png_71/restaurant-71.png","icon_background_color":"#FF9E67","icon_mask_base_uri":"https://maps.gstatic.com/mapfiles/place_api/icons/v2/restaurant_pinlet","name":"China Flavor","opening_hours":{"open_now":true},"photos":[{"height":2248,"html_attributions":["<a href=\"https://maps.google.com/maps/contrib/110020676767578518686\">Juha Nurmonen</a>"],"photo_reference":"Aaw_FcII6TVIxFu8MaPVlfK6-PLfZUTLot2wfTnHj441xBNgzTCMgcKzTvzmJbLLlAOl2NjVTOIKnmAq0tOnASLAbBWSgmdlP379Wn0uF4h9w_klQUjNCtXJq4YkRgGam4-w1Q6IHx8Hcbpl-0NbPMDGgUwWQoqjOJ_sBWrnIcbKuTAnH_5c","width":4000}],"place_id":"ChIJdyLrzJ8JkkYRrbBT-jP6HBs","plus_code":{"compound_code":"6X39+54 Helsinki","global_code":"9GG66X39+54"},"price_level":2,"rating":4.1,"reference":"ChIJdyLrzJ8JkkYRrbBT-jP6HBs","types":["restaurant","point_of_interest","food","establishment"],"user_ratings_total":280},{"business_status":"OPERATIONAL","formatted_address":"Hämeentie 111, 00550 Helsinki, Finland","geometry":{"location":{"lat":60.2029339,"lng":24.9677844},"viewport":{"northeast":{"lat":60.20449497989272,"lng":24.9702447},"southwest":{"lat":60.20179532010727,"lng":24.9669643}}},"icon":"https://maps.gstatic.com/mapfiles/place_api/icons/v1/png_71/restaurant-71.png","icon_background_color":"#FF9E67","icon_mask_base_uri":"https://maps.gstatic.com/mapfiles/place_api/icons/v2/restaurant_pinlet","name":"Iguana Arabia","opening_hours":{"open_now":true},"place_id":"ChIJE3KmGPkJkkYRclSiO4sui6A","plus_code":{"compound_code":"6X39+54 Helsinki","global_code":"9GG66X39+54"},"rating":4.3,"reference":"ChIJE3KmGPkJkkYRclSiO4sui6A","types":["restaurant","point_of_interest","food","establishment"],"user_ratings_total":4},{"business_status":"OPERATIONAL","formatted_address":"Arabiankatu 6 c, 00560 Helsinki, Finland","geometry":{"location":{"lat":60.2078769,"lng":24.9777451},"viewport":{"northeast":{"lat":60.20919417989272,"lng":24.97923642989272},"southwest":{"lat":60.20649452010728,"lng":24.97653677010728}}},"icon":"https://maps.gstatic.com/mapfiles/place_api/icons/v1/png_71/restaurant-71.png","icon_background_color":"#FF9E67","icon_mask_base_uri":"https://maps.gstatic.com/mapfiles/place_api/icons/v2/restaurant_pinlet","name":"Parmesan Arabia","opening_hours":{"open_now":true},"photos":[{"height":3000,"html_attributions":["<a href=\"https://maps.google.com/maps/contrib/116885847510503545224\">Teemu Koskinen</a>"],"photo_reference":"Aaw_FcLRiLK4nmdbhomy2ZcQ52GzWebVPOGWoZNg5FyJlmf7UmNA9rBbQjooO5Da0Y1_SSP62eDXssqDKq8YvszJkBoKUim5MM25cp862kesn_6Nj5bo4DypQOaVS0VKhgEIOnZ0hYuZlltnpkzdwYz6tf1W5U0sTZl04VuEOQticb-r9nhA","width":4000}],"place_id":"ChIJ273zZQoJkkYRUNiuVV0qS3M","plus_code":{"compound_code":"6X5H+53 Helsinki","global_code":"9GG66X5H+53"},"price_level":2,"rating":4.1,"reference":"ChIJ273zZQoJkkYRUNiuVV0qS3M","types":["restaurant","point_of_interest","food","establishment"],"user_ratings_total":129},{"business_status":"OPERATIONAL","formatted_address":"Arabiankatu 12, 00560 Helsinki, Finland","geometry":{"location":{"lat":60.2092053,"lng":24.9789311},"viewport":{"northeast":{"lat":60.21053722989272,"lng":24.98036587989272},"southwest":{"lat":60.20783757010727,"lng":24.97766622010728}}},"icon":"https://maps.gstatic.com/mapfiles/place_api/icons/v1/png_71/restaurant-71.png","icon_background_color":"#FF9E67","icon_mask_base_uri":"https://maps.gstatic.com/mapfiles/place_api/icons/v2/restaurant_pinlet","name":"Ravintola Arabiankulma","opening_hours":{"open_now":false},"photos":[{"height":1540,"html_attributions":["<a href=\"https://maps.google.com/maps/contrib/100702596717250200251\">A Google User</a>"],"photo_reference":"Aaw_FcJHSfhACM-yXNwe4BV9YGSb9wH7Tth5nHBGy4WkylqDjeuWIWy5OW-FZbofuKnDG-8OLfzESiP_sDdO0iYwjnHPcNE08szefgV--RGVnWFwk5Wd14rrrhFcFi4C21oePc5Xp1GJtuRdctrWSZrz3at6MOe6EXx3imRFrPVIsrhETXHX","width":3000}],"place_id":"ChIJnbihHAoJkkYRh7vWr-iLzgE","plus_code":{"compound_code":"6X5H+MH Helsinki","global_code":"9GG66X5H+MH"},"rating":4.2,"reference":"ChIJnbihHAoJkkYRh7vWr-iLzgE","types":["restaurant","cafe","point_of_interest","food","establishment"],"user_ratings_total":43},{"business_status":"OPERATIONAL","formatted_address":"Arabiankatu 8 LT 2, 00560 Helsinki, Finland","geometry":{"location":{"lat":60.2083628,"lng":24.9782317},"viewport":{"northeast":{"lat":60.20969387989272,"lng":24.97967057989272},"southwest":{"lat":60.20699422010728,"lng":24.97697092010728}}},"icon":"https://maps.gstatic.com/mapfiles/place_api/icons/v1/png_71/restaurant-71.png","icon_background_color":"#FF9E67","icon_mask_base_uri":"https://maps.gstatic.com/mapfiles/place_api/icons/v2/restaurant_pinlet","name":"Restaurant Swagatam - Nepalese Cuisine","opening_hours":{"open_now":true},"photos":[{"height":3456,"html_attributions":["<a href=\"https://maps.google.com/maps/contrib/113308301442797533505\">Mika Mölsä</a>"],"photo_reference":"Aaw_FcJumU9L8ZXJhzy3FeUJvSdD8hHDTcq3Qhf5d3Zd51k3xLVMTFBlBCwa-FMXSf65SYZH-8YF29dOUWNRLY6TRvVF1cKzv8LXZqPcF2vNGQKeOZlUJKagCYjOCEl6Ni3tciTe4MLM78Au9vBy5iunInru15AMZfiOOOlrYVaiwnd-kBW7","width":4608}],"place_id":"ChIJCXZf4S8KkkYRoF9A8UUlBR8","plus_code":{"compound_code":"6X5H+87 Helsinki","global_code":"9GG66X5H+87"},"price_level":2,"rating":4.5,"reference":"ChIJCXZf4S8KkkYRoF9A8UUlBR8","types":["restaurant","point_of_interest","food","establishment"],"user_ratings_total":259},{"business_status":"OPERATIONAL","formatted_address":"Hämeentie 111 2. floor, 00560 Helsinki, Finland","geometry":{"location":{"lat":60.20272629999999,"lng":24.968679},"viewport":{"northeast":{"lat":60.20445087989273,"lng":24.97024327989272},"southwest":{"lat":60.20175122010728,"lng":24.96754362010727}}},"icon":"https://maps.gstatic.com/mapfiles/place_api/icons/v1/png_71/restaurant-71.png","icon_background_color":"#FF9E67","icon_mask_base_uri":"https://maps.gstatic.com/mapfiles/place_api/icons/v2/restaurant_pinlet","name":"Momo & More Nepalese Restaurant Arabia","opening_hours":{"open_now":true},"photos":[{"height":3072,"html_attributions":["<a href=\"https://maps.google.com/maps/contrib/104435632806942577620\">A Google User</a>"],"photo_reference":"Aaw_FcIH5PJdTR2GcL_P7JsRKdYqUmASBZGpp52ImyAzUj-VRT2fjNzA4z1cvkt3iAVVFmXg4EuylDYoAWwLc4OiJozSHcH8XvSSySBfNHhCA6K7wVSPuJk2bnLKeU4BlhwizLs_7_kP-DoYdPjQAhUhEvIu60faYExtIpKUK-qTWdWp9PO-","width":4080}],"place_id":"ChIJgZoS4tQJkkYR0aN1wQlxA-U","plus_code":{"compound_code":"6X39+3F Helsinki","global_code":"9GG66X39+3F"},"rating":4.4,"reference":"ChIJgZoS4tQJkkYR0aN1wQlxA-U","types":["restaurant","point_of_interest","food","establishment"],"user_ratings_total":72},{"business_status":"CLOSED_TEMPORARILY","formatted_address":"Hämeentie 111, 00560 Helsinki, Finland","geometry":{"location":{"lat":60.2029339,"lng":24.9677844},"viewport":{"northeast":{"lat":60.20449497989272,"lng":24.9702447},"southwest":{"lat":60.20179532010727,"lng":24.9669643}}},"icon":"https://maps.gstatic.com/mapfiles/place_api/icons/v1/png_71/restaurant-71.png","icon_background_color":"#FF9E67","icon_mask_base_uri":"https://maps.gstatic.com/mapfiles/place_api/icons/v2/restaurant_pinlet","name":"Picnic Arabia","permanently_closed":true,"photos":[{"height":978,"html_attributions":["<a href=\"https://maps.google.com/maps/contrib/104386102685992952648\">Pertti</a>"],"photo_reference":"Aaw_FcJk2VUCVH0h_n-_rBz6nojE4qFquKC4ge5jJjzdnupJ43VER99xc0rPG8CsZXIWFxaIQz55hy2fz7AwAsPnU1JFgvchYmUupmtshH_1whlwGrTUpimUjHpw0H0ktEPdbAAqoElu7AQjtAWjHDbZtaO_Y6owYyrsEXhPuvxhN2KwfcO0","width":1838}],"place_id":"ChIJ2Uxo8mkJkkYRIDd-9jI7oqk","plus_code":{"compound_code":"6X39+54 Helsinki","global_code":"9GG66X39+54"},"rating":0,"reference":"ChIJ2Uxo8mkJkkYRIDd-9jI7oqk","types":["restaurant","point_of_interest","food","establishment"],"user_ratings_total":0},{"business_status":"OPERATIONAL","formatted_address":"Arabiankatu 12, 00560 Helsinki, Finland","geometry":{"location":{"lat":60.20919679999999,"lng":24.9789236},"viewport":{"northeast":{"lat":60.21052867989272,"lng":24.98035842989272},"southwest":{"lat":60.20782902010728,"lng":24.97765877010728}}},"icon":"https://maps.gstatic.com/mapfiles/place_api/icons/v1/png_71/restaurant-71.png","icon_background_color":"#FF9E67","icon_mask_base_uri":"https://maps.gstatic.com/mapfiles/place_api/icons/v2/restaurant_pinlet","name":"Nordic Light Restaurant","photos":[{"height":2610,"html_attributions":["<a href=\"https://maps.google.com/maps/contrib/118259681986258433752\">Risto Tuomarla</a>"],"photo_reference":"Aaw_FcIV7FKCgYhGdUkv0gEYR5YMP2goMBcB3kIeP3nvxmnJqAzmAPEpFeYCZelwGrTzcgHm0bR_J43X6xXTkxIBrNUYagNNhhFFpVrjN7uIjyNs6llRJZ86Hl1dIJE-w7Gw8uuLUkRlk9HSJnM4i56eJBipT8oNNFyoKUmRhjKefPNp1vK4","width":4640}],"place_id":"ChIJVzY5GwoJkkYRfLKD2FPPJxM","plus_code":{"compound_code":"6X5H+MH Helsinki","global_code":"9GG66X5H+MH"},"rating":3.3,"reference":"ChIJVzY5GwoJkkYRfLKD2FPPJxM","types":["restaurant","point_of_interest","food","establishment"],"user_ratings_total":4},{"business_status":"OPERATIONAL","formatted_address":"Hämeentie 150, 00560 Helsinki, Finland","geometry":{"location":{"lat":60.2103366,"lng":24.9763866},"viewport":{"northeast":{"lat":60.21160267989271,"lng":24.97779917989272},"southwest":{"lat":60.20890302010727,"lng":24.97509952010728}}},